stop_id,stop_point_ref,stop_name,planned_time,estimated_time,line_name,destination,platform,journey_ref,operating_day_ref,delay_minutes,latitude,longitude,weather_timestamp,temperature,precipitation_mm,wind_speed_ms,wind_direction_deg,cloud_cover,pressure_hpa,relative_humidity,condition,icon,weather_source_id,weather_station_name
de:08416:11000,de:08416:11000,Tübingen Hauptbahnhof,2025-11-11 18:10:00,,336,ZOB,,bus:02336::H:f5z:1,2025-11-11,,48.51624,9.05388,2025-11-11 17:00,11.8,0.0,5.8,30,63,1017.0,75,dry,partly-cloudy-night,64012,Rottenburg-Kiebingen
de:08416:10044,de:08416:10044:0:4,Tübingen Neckarhalde,2025-11-11 17:11:18,2025-11-11 17:11:18,6,Tübingen Hauptbahnhof,,tub:09006::R:j25:23,2025-11-11,0.0,48.51764,9.04762,2025-11-11 17:00,11.8,0.0,5.8,30,63,1017.0,75,dry,partly-cloudy-night,64012,Rottenburg-Kiebingen
de:08416:10044,de:08416:10044:0:4,Tübingen Neckarhalde,2025-11-11 17:41:18,2025-11-11 17:41:18,6,Tübingen Hauptbahnhof,,tub:09006::R:j25:24,2025-11-11,0.0,48.51764,9.04762,2025-11-11 17:00,11.8,0.0,5.8,30,63,1017.0,75,dry,partly-cloudy-night,64012,Rottenburg-Kiebingen
de:08416:10044,de:08416:10044:0:1,Tübingen Neckarhalde,2025-11-11 17:34:24,2025-11-11 17:34:24,6,Tübingen Hirschauer Straße,,tub:09006::H:j25:212,2025-11-11,0.0,48.51764,9.04762,2025-11-11 17:00,11.8,0.0,5.8,30,63,1017.0,75,dry,partly-cloudy-night,64012,Rottenburg-Kiebingen
de:08416:10044,de:08416:10044:0:1,Tübingen Neckarhalde,2025-11-11 18:04:24,2025-11-11 18:04:24,6,Tübingen Hirschauer Straße,,tub:09006::H:j25:213,2025-11-11,0.0,48.51764,9.04762,2025-11-11 17:00,11.8,0.0,5.8,30,63,1017.0,75,dry,partly-cloudy-night,64012,Rottenburg-Kiebingen
de:08416:11000,de:08416:11000:14:G,Tübingen Hauptbahnhof,2025-11-11 17:08:00,2025-11-11 17:18:00,18,Oberndorf Feuersee,Bstg. G,tub:33018::H:j25:125,2025-11-11,10.0,48.51624,9.05388,2025-11-11 17:00,11.8,0.0,5.8,30,63,1017.0,75,dry,partly-cloudy-night,64012,Rottenburg-Kiebingen
de:08416:11000,de:08416:11000:14:G,Tübingen Hauptbahnhof,2025-11-11 17:23:00,2025-11-11 17:32:18,18,Rottenburg E.-Bolz-Platz,Bstg. G,tub:33018::H:j25:208,2025-11-11,9.3,48.51624,9.05388,2025-11-11 17:00,11.8,0.0,5.8,30,63,1017.0,75,dry,partly-cloudy-night,64012,Rottenburg-Kiebingen
de:08416:11000,de:08416:11000:14:G,Tübingen Hauptbahnhof,2025-11-11 17:32:00,2025-11-11 17:32:00,2,Tübingen Mühlbachäcker,Bstg. G,tub:09002::H:j25:468,2025-11-11,0.0,48.51624,9.05388,2025-11-11 17:00,11.8,0.0,5.8,30,63,1017.0,75,dry,partly-cloudy-night,64012,Rottenburg-Kiebingen
de:08416:11000,de:08416:11000:14:G,Tübingen Hauptbahnhof,2025-11-11 17:38:00,2025-11-11 17:49:18,18,Poltringen Ammerbrücke,Bstg. G,tub:33018::H:j25:141,2025-11-11,11.3,48.51624,9.05388,2025-11-11 17:00,11.8,0.0,5.8,30,63,1017.0,75,dry,partly-cloudy-night,64012,Rottenburg-Kiebingen
de:08416:11000,de:08416:11000:14:G,Tübingen Hauptbahnhof,2025-11-11 17:53:00,,18,Oberndorf Feuersee,Bstg. G,tub:33018::H:j25:164,2025-11-11,,48.51624,9.05388,2025-11-11 17:00,11.8,0.0,5.8,30,63,1017.0,75,dry,partly-cloudy-night,64012,Rottenburg-Kiebingen
de:08416:11000,de:08416:11000:14:G,Tübingen Hauptbahnhof,2025-11-11 18:02:00,2025-11-11 18:02:00,2,Tübingen Mühlbachäcker,Bstg. G,tub:09002::H:j25:469,2025-11-11,0.0,48.51624,9.05388,2025-11-11 17:00,11.8,0.0,5.8,30,63,1017.0,75,dry,partly-cloudy-night,64012,Rottenburg-Kiebingen
de:08416:11000,de:08416:11000:2:13,Tübingen Hauptbahnhof,2025-11-11 17:11:00,2025-11-11 17:11:00,RB 63,Herrenberg,13,ddb:90T63::R:j25:444,2025-11-11,0.0,48.51624,9.05388,2025-11-11 17:00,11.8,0.0,5.8,30,63,1017.0,75,dry,partly-cloudy-night,64012,Rottenburg-Kiebingen
de:08416:11000,de:08416:11000:2:13,Tübingen Hauptbahnhof,2025-11-11 17:23:00,2025-11-11 17:23:00,RB 63,Entringen Bahnhof,13,ddb:90T63::R:j25:448,2025-11-11,0.0,48.51624,9.05388,2025-11-11 17:00,11.8,0.0,5.8,30,63,1017.0,75,dry,partly-cloudy-night,64012,Rottenburg-Kiebingen
de:08416:11000,de:08416:11000:2:13,Tübingen Hauptbahnhof,2025-11-11 17:41:00,,RB 63,Herrenberg,13,ddb:90T63::R:j25:449,2025-11-11,,48.51624,9.05388,2025-11-11 17:00,11.8,0.0,5.8,30,63,1017.0,75,dry,partly-cloudy-night,64012,Rottenburg-Kiebingen
de:08416:11000,de:08416:11000:2:13,Tübingen Hauptbahnhof,2025-11-11 17:53:00,,RB 63,Entringen Bahnhof,13,ddb:90T63::R:j25:452,2025-11-11,,48.51624,9.05388,2025-11-11 17:00,11.8,0.0,5.8,30,63,1017.0,75,dry,partly-cloudy-night,64012,Rottenburg-Kiebingen
de:08416:11000,de:08416:11000:12:D,Tübingen Hauptbahnhof,2025-11-11 17:12:00,,21,Tübingen Egeriaplatz,Bstg. D,tub:09021::H:j25:134,2025-11-11,,48.51624,9.05388,2025-11-11 17:00,11.8,0.0,5.8,30,63,1017.0,75,dry,partly-cloudy-night,64012,Rottenburg-Kiebingen
de:08416:11000,de:08416:11000:12:D,Tübingen Hauptbahnhof,2025-11-11 17:15:00,2025-11-11 17:15:00,17,Tübingen Uni-Kliniken Berg,Bstg. D,tub:09017::R:j25:12,2025-11-11,0.0,48.51624,9.05388,2025-11-11 17:00,11.8,0.0,5.8,30,63,1017.0,75,dry,partly-cloudy-night,64012,Rottenburg-Kiebingen
de:08416:11000,de:08416:11000:12:D,Tübingen Hauptbahnhof,2025-11-11 17:22:00,2025-11-11 17:22:00,21,Tübingen Düsseldorfer Str.,Bstg. D,tub:09021::R:j25:53,2025-11-11,0.0,48.51624,9.05388,2025-11-11 17:00,11.8,0.0,5.8,30,63,1017.0,75,dry,partly-cloudy-night,64012,Rottenburg-Kiebingen
de:08416:11000,de:08416:11000:12:D,Tübingen Hauptbahnhof,2025-11-11 17:27:00,2025-11-11 17:27:00,22,Tübingen Carlo-Steeb-Str.,Bstg. D,tub:09022::H:j25:136,2025-11-11,0.0,48.51624,9.05388,2025-11-11 17:00,11.8,0.0,5.8,30,63,1017.0,75,dry,partly-cloudy-night,64012,Rottenburg-Kiebingen
de:08416:11000,de:08416:11000:12:D,Tübingen Hauptbahnhof,2025-11-11 17:34:00,,10,Tübingen Schwabstraße,Bstg. D,tub:09010::R:j25:138,2025-11-11,,48.51624,9.05388,2025-11-11 17:00,11.8,0.0,5.8,30,63,1017.0,75,dry,partly-cloudy-night,64012,Rottenburg-Kiebingen
de:08416:11000,de:08416:11000:12:D,Tübingen Hauptbahnhof,2025-11-11 17:41:00,2025-11-11 17:41:00,32,Tübingen Ursrainer Ring,Bstg. D,tub:09032::R:j25:28,2025-11-11,0.0,48.51624,9.05388,2025-11-11 17:00,11.8,0.0,5.8,30,63,1017.0,75,dry,partly-cloudy-night,64012,Rottenburg-Kiebingen
de:08416:11000,de:08416:11000:12:D,Tübingen Hauptbahnhof,2025-11-11 17:42:00,2025-11-11 17:42:00,21,Tübingen Egeriaplatz,Bstg. D,tub:09021::H:j25:136,2025-11-11,0.0,48.51624,9.05388,2025-11-11 17:00,11.8,0.0,5.8,30,63,1017.0,75,dry,partly-cloudy-night,64012,Rottenburg-Kiebingen
de:08416:11000,de:08416:11000:12:D,Tübingen Hauptbahnhof,2025-11-11 17:52:00,,21,Tübingen Düsseldorfer Str.,Bstg. D,tub:09021::R:j25:55,2025-11-11,,48.51624,9.05388,2025-11-11 17:00,11.8,0.0,5.8,30,63,1017.0,75,dry,partly-cloudy-night,64012,Rottenburg-Kiebingen
de:08416:11000,de:08416:11000:12:D,Tübingen Hauptbahnhof,2025-11-11 17:57:00,,22,Tübingen Carlo-Steeb-Str.,Bstg. D,tub:09022::H:j25:137,2025-11-11,,48.51624,9.05388,2025-11-11 17:00,11.8,0.0,5.8,30,63,1017.0,75,dry,partly-cloudy-night,64012,Rottenburg-Kiebingen
de:08416:11000,de:08416:11000:12:D,Tübingen Hauptbahnhof,2025-11-11 18:04:00,2025-11-11 18:04:00,10,Tübingen Schwabstraße,Bstg. D,tub:09010::R:j25:139,2025-11-11,0.0,48.51624,9.05388,2025-11-11 17:00,11.8,0.0,5.8,30,63,1017.0,75,dry,partly-cloudy-night,64012,Rottenburg-Kiebingen
de:08416:11000,de:08416:11000:13:M,Tübingen Hauptbahnhof,2025-11-11 17:12:00,2025-11-11 17:12:00,X82,Echterdingen Flughafen/Messe (SAB),Bstg. M,vvs:31X82::R:j25:14,2025-11-11,0.0,48.51624,9.05388,2025-11-11 17:00,11.8,0.0,5.8,30,63,1017.0,75,dry,partly-cloudy-night,64012,Rottenburg-Kiebingen
de:08416:11000,de:08416:11000:13:M,Tübingen Hauptbahnhof,2025-11-11 17:32:00,,828,Echterdingen Flughafen/Messe (SAB),Bstg. M,vvs:31828::R:j25:218,2025-11-11,,48.51624,9.05388,2025-11-11 17:00,11.8,0.0,5.8,30,63,1017.0,75,dry,partly-cloudy-night,64012,Rottenburg-Kiebingen
de:08416:11000,de:08416:11000:13:M,Tübingen Hauptbahnhof,2025-11-11 17:44:00,,827,Häslach Rathaus,Bstg. M,vvs:31827::R:j25:13,2025-11-11,,48.51624,9.05388,2025-11-11 17:00,11.8,0.0,5.8,30,63,1017.0,75,dry,partly-cloudy-night,64012,Rottenburg-Kiebingen
de:08416:11000,de:08416:11000:13:M,Tübingen Hauptbahnhof,2025-11-11 17:56:00,,826,Leinfelden Bf,Bstg. M,vvs:31826::R:j25:294,2025-11-11,,48.51624,9.05388,2025-11-11 17:00,11.8,0.0,5.8,30,63,1017.0,75,dry,partly-cloudy-night,64012,Rottenburg-Kiebingen
de:08416:11000,de:08416:11000:14:H,Tübingen Hauptbahnhof,2025-11-11 17:12:00,,19,Rottenburg Bahnhof,Bstg. H,rab:24019::H:25a:200,2025-11-11,,48.51624,9.05388,2025-11-11 17:00,11.8,0.0,5.8,30,63,1017.0,75,dry,partly-cloudy-night,64012,Rottenburg-Kiebingen
de:08416:11000,de:08416:11000:14:H,Tübingen Hauptbahnhof,2025-11-11 17:27:00,,19,Bühl Römerstraße,Bstg. H,rab:24019::H:25a:231,2025-11-11,,48.51624,9.05388,2025-11-11 17:00,11.8,0.0,5.8,30,63,1017.0,75,dry,partly-cloudy-night,64012,Rottenburg-Kiebingen
de:08416:11000,de:08416:11000:14:H,Tübingen Hauptbahnhof,2025-11-11 17:32:00,2025-11-11 17:32:00,6,Tübingen Hirschauer Straße,Bstg. H,tub:09006::H:j25:212,2025-11-11,0.0,48.51624,9.05388,2025-11-11 17:00,11.8,0.0,5.8,30,63,1017.0,75,dry,partly-cloudy-night,64012,Rottenburg-Kiebingen
de:08416:11000,de:08416:11000:14:H,Tübingen Hauptbahnhof,2025-11-11 17:42:00,,19,Bühl Römerstraße,Bstg. H,rab:24019::H:25a:145,2025-11-11,,48.51624,9.05388,2025-11-11 17:00,11.8,0.0,5.8,30,63,1017.0,75,dry,partly-cloudy-night,64012,Rottenburg-Kiebingen
de:08416:11000,de:08416:11000:14:H,Tübingen Hauptbahnhof,2025-11-11 17:57:00,,19,Bühl Römerstraße,Bstg. H,rab:24019::H:25a:232,2025-11-11,,48.51624,9.05388,2025-11-11 17:00,11.8,0.0,5.8,30,63,1017.0,75,dry,partly-cloudy-night,64012,Rottenburg-Kiebingen
de:08416:11000,de:08416:11000:14:H,Tübingen Hauptbahnhof,2025-11-11 18:02:00,2025-11-11 18:02:00,6,Tübingen Hirschauer Straße,Bstg. H,tub:09006::H:j25:213,2025-11-11,0.0,48.51624,9.05388,2025-11-11 17:00,11.8,0.0,5.8,30,63,1017.0,75,dry,partly-cloudy-night,64012,Rottenburg-Kiebingen
de:08416:11000,de:08416:11000:11:B,Tübingen Hauptbahnhof,2025-11-11 17:13:00,2025-11-11 17:13:00,13,Tübingen BG Unfallklinik,Bstg. B,tub:09013::R:j25:158,2025-11-11,0.0,48.51624,9.05388,2025-11-11 17:00,11.8,0.0,5.8,30,63,1017.0,75,dry,partly-cloudy-night,64012,Rottenburg-Kiebingen
de:08416:11000,de:08416:11000:11:B,Tübingen Hauptbahnhof,2025-11-11 17:16:00,2025-11-11 17:16:00,5,Tübingen WHO Ahornweg,Bstg. B,tub:09005::R:j25:110,2025-11-11,0.0,48.51624,9.05388,2025-11-11 17:00,11.8,0.0,5.8,30,63,1017.0,75,dry,partly-cloudy-night,64012,Rottenburg-Kiebingen
de:08416:11000,de:08416:11000:11:B,Tübingen Hauptbahnhof,2025-11-11 17:21:00,2025-11-11 17:36:00,18,Hagelloch Dornäckerweg,Bstg. B,tub:33018::R:j25:10,2025-11-11,15.0,48.51624,9.05388,2025-11-11 17:00,11.8,0.0,5.8,30,63,1017.0,75,dry,partly-cloudy-night,64012,Rottenburg-Kiebingen
de:08416:11000,de:08416:11000:11:B,Tübingen Hauptbahnhof,2025-11-11 17:26:00,2025-11-11 17:26:00,5,Tübingen WHO Ahornweg,Bstg. B,tub:09005::R:j25:112,2025-11-11,0.0,48.51624,9.05388,2025-11-11 17:00,11.8,0.0,5.8,30,63,1017.0,75,dry,partly-cloudy-night,64012,Rottenburg-Kiebingen
de:08416:11000,de:08416:11000:11:B,Tübingen Hauptbahnhof,2025-11-11 17:31:00,,19,Tübingen BG Unfallklinik,Bstg. B,rab:24019::R:25a:129,2025-11-11,,48.51624,9.05388,2025-11-11 17:00,11.8,0.0,5.8,30,63,1017.0,75,dry,partly-cloudy-night,64012,Rottenburg-Kiebingen
de:08416:11000,de:08416:11000:11:B,Tübingen Hauptbahnhof,2025-11-11 17:36:00,2025-11-11 17:36:00,5,Tübingen WHO Ahornweg,Bstg. B,tub:09005::R:j25:115,2025-11-11,0.0,48.51624,9.05388,2025-11-11 17:00,11.8,0.0,5.8,30,63,1017.0,75,dry,partly-cloudy-night,64012,Rottenburg-Kiebingen
de:08416:11000,de:08416:11000:11:B,Tübingen Hauptbahnhof,2025-11-11 17:43:00,2025-11-11 17:43:00,13,Tübingen BG Unfallklinik,Bstg. B,tub:09013::R:j25:63,2025-11-11,0.0,48.51624,9.05388,2025-11-11 17:00,11.8,0.0,5.8,30,63,1017.0,75,dry,partly-cloudy-night,64012,Rottenburg-Kiebingen
de:08416:11000,de:08416:11000:11:B,Tübingen Hauptbahnhof,2025-11-11 17:46:00,2025-11-11 17:46:00,5,Tübingen WHO Ahornweg,Bstg. B,tub:09005::R:j25:116,2025-11-11,0.0,48.51624,9.05388,2025-11-11 17:00,11.8,0.0,5.8,30,63,1017.0,75,dry,partly-cloudy-night,64012,Rottenburg-Kiebingen
de:08416:11000,de:08416:11000:11:B,Tübingen Hauptbahnhof,2025-11-11 17:51:00,,18,Hagelloch Dornäckerweg,Bstg. B,tub:33018::R:j25:11,2025-11-11,,48.51624,9.05388,2025-11-11 17:00,11.8,0.0,5.8,30,63,1017.0,75,dry,partly-cloudy-night,64012,Rottenburg-Kiebingen
de:08416:11000,de:08416:11000:11:B,Tübingen Hauptbahnhof,2025-11-11 17:56:00,2025-11-11 17:56:00,5,Tübingen WHO Ahornweg,Bstg. B,tub:09005::R:j25:118,2025-11-11,0.0,48.51624,9.05388,2025-11-11 17:00,11.8,0.0,5.8,30,63,1017.0,75,dry,partly-cloudy-night,64012,Rottenburg-Kiebingen
de:08416:11000,de:08416:11000:11:B,Tübingen Hauptbahnhof,2025-11-11 18:01:00,,19,Tübingen BG Unfallklinik,Bstg. B,rab:24019::R:25a:130,2025-11-11,,48.51624,9.05388,2025-11-11 17:00,11.8,0.0,5.8,30,63,1017.0,75,dry,partly-cloudy-night,64012,Rottenburg-Kiebingen
de:08416:11000,de:08416:11000:11:B,Tübingen Hauptbahnhof,2025-11-11 18:06:00,2025-11-11 18:06:00,5,Tübingen WHO Ahornweg,Bstg. B,tub:09005::R:j25:120,2025-11-11,0.0,48.51624,9.05388,2025-11-11 17:00,11.8,0.0,5.8,30,63,1017.0,75,dry,partly-cloudy-night,64012,Rottenburg-Kiebingen
de:08416:11000,de:08416:11000:12:F,Tübingen Hauptbahnhof,2025-11-11 17:13:00,2025-11-11 17:13:00,34,Tübingen Bergfriedhof West,Bstg. F,tub:09034::R:j25:23,2025-11-11,0.0,48.51624,9.05388,2025-11-11 17:00,11.8,0.0,5.8,30,63,1017.0,75,dry,partly-cloudy-night,64012,Rottenburg-Kiebingen
de:08416:11000,de:08416:11000:12:F,Tübingen Hauptbahnhof,2025-11-11 17:18:00,2025-11-11 17:18:00,13,Tübingen Aixer Straße,Bstg. F,tub:09013::H:j25:205,2025-11-11,0.0,48.51624,9.05388,2025-11-11 17:00,11.8,0.0,5.8,30,63,1017.0,75,dry,partly-cloudy-night,64012,Rottenburg-Kiebingen
de:08416:11000,de:08416:11000:12:F,Tübingen Hauptbahnhof,2025-11-11 17:22:00,2025-11-11 17:22:00,35,Tübingen Vor dem Großholz,Bstg. F,tub:09035::R:j25:12,2025-11-11,0.0,48.51624,9.05388,2025-11-11 17:00,11.8,0.0,5.8,30,63,1017.0,75,dry,partly-cloudy-night,64012,Rottenburg-Kiebingen
de:08416:11000,de:08416:11000:12:F,Tübingen Hauptbahnhof,2025-11-11 17:28:00,2025-11-11 17:28:00,4,Tübingen Wennf. Garten,Bstg. F,tub:09004::H:j25:368,2025-11-11,0.0,48.51624,9.05388,2025-11-11 17:00,11.8,0.0,5.8,30,63,1017.0,75,dry,partly-cloudy-night,64012,Rottenburg-Kiebingen
de:08416:11000,de:08416:11000:12:F,Tübingen Hauptbahnhof,2025-11-11 17:38:00,2025-11-11 17:38:00,1,Tübingen Franz. Viertel,Bstg. F,tub:09001::H:j25:98,2025-11-11,0.0,48.51624,9.05388,2025-11-11 17:00,11.8,0.0,5.8,30,63,1017.0,75,dry,partly-cloudy-night,64012,Rottenburg-Kiebingen
de:08416:11000,de:08416:11000:12:F,Tübingen Hauptbahnhof,2025-11-11 17:43:00,2025-11-11 17:43:00,34,Bergfriedhof,Bstg. F,tub:09034::R:j25:65534,2025-11-11,0.0,48.51624,9.05388,2025-11-11 17:00,11.8,0.0,5.8,30,63,1017.0,75,dry,partly-cloudy-night,64012,Rottenburg-Kiebingen
de:08416:11000,de:08416:11000:12:F,Tübingen Hauptbahnhof,2025-11-11 17:43:00,,34,Tübingen Bergfriedhof West,Bstg. F,tub:09034::R:j25:24,2025-11-11,,48.51624,9.05388,2025-11-11 17:00,11.8,0.0,5.8,30,63,1017.0,75,dry,partly-cloudy-night,64012,Rottenburg-Kiebingen
de:08416:11000,de:08416:11000:12:F,Tübingen Hauptbahnhof,2025-11-11 17:48:00,2025-11-11 17:48:00,13,Tübingen Aixer Straße,Bstg. F,tub:09013::H:j25:274,2025-11-11,0.0,48.51624,9.05388,2025-11-11 17:00,11.8,0.0,5.8,30,63,1017.0,75,dry,partly-cloudy-night,64012,Rottenburg-Kiebingen
de:08416:11000,de:08416:11000:12:F,Tübingen Hauptbahnhof,2025-11-11 17:58:00,2025-11-11 17:58:00,4,Tübingen Wennf. Garten,Bstg. F,tub:09004::H:j25:371,2025-11-11,0.0,48.51624,9.05388,2025-11-11 17:00,11.8,0.0,5.8,30,63,1017.0,75,dry,partly-cloudy-night,64012,Rottenburg-Kiebingen
de:08416:11000,de:08416:11000:12:F,Tübingen Hauptbahnhof,2025-11-11 18:08:00,2025-11-11 18:08:00,1,Tübingen Franz. Viertel,Bstg. F,tub:09001::H:j25:102,2025-11-11,0.0,48.51624,9.05388,2025-11-11 17:00,11.8,0.0,5.8,30,63,1017.0,75,dry,partly-cloudy-night,64012,Rottenburg-Kiebingen
de:08416:11000,de:08416:11000:11:A,Tübingen Hauptbahnhof,2025-11-11 17:13:00,2025-11-11 17:13:00,4,Tübingen WHO Ulmenweg,Bstg. A,tub:09004::R:j25:73,2025-11-11,0.0,48.51624,9.05388,2025-11-11 17:00,11.8,0.0,5.8,30,63,1017.0,75,dry,partly-cloudy-night,64012,Rottenburg-Kiebingen
de:08416:11000,de:08416:11000:11:A,Tübingen Hauptbahnhof,2025-11-11 17:18:00,2025-11-11 17:18:00,3,Tübingen WHO Ulmenweg,Bstg. A,tub:09003::R:j25:161,2025-11-11,0.0,48.51624,9.05388,2025-11-11 17:00,11.8,0.0,5.8,30,63,1017.0,75,dry,partly-cloudy-night,64012,Rottenburg-Kiebingen
de:08416:11000,de:08416:11000:11:A,Tübingen Hauptbahnhof,2025-11-11 17:20:00,2025-11-11 17:20:00,6,Tübingen Sand Drosselweg,Bstg. A,tub:09006::R:j25:181,2025-11-11,0.0,48.51624,9.05388,2025-11-11 17:00,11.8,0.0,5.8,30,63,1017.0,75,dry,partly-cloudy-night,64012,Rottenburg-Kiebingen
de:08416:11000,de:08416:11000:11:A,Tübingen Hauptbahnhof,2025-11-11 17:23:00,2025-11-11 17:23:00,2,Tübingen WHO Ulmenweg,Bstg. A,tub:09002::R:j25:49,2025-11-11,0.0,48.51624,9.05388,2025-11-11 17:00,11.8,0.0,5.8,30,63,1017.0,75,dry,partly-cloudy-night,64012,Rottenburg-Kiebingen
de:08416:11000,de:08416:11000:11:A,Tübingen Hauptbahnhof,2025-11-11 17:28:00,2025-11-11 17:28:00,4,Tübingen WHO Ulmenweg,Bstg. A,tub:09004::R:j25:74,2025-11-11,0.0,48.51624,9.05388,2025-11-11 17:00,11.8,0.0,5.8,30,63,1017.0,75,dry,partly-cloudy-night,64012,Rottenburg-Kiebingen
de:08416:11000,de:08416:11000:11:A,Tübingen Hauptbahnhof,2025-11-11 17:33:00,2025-11-11 17:33:00,3,Tübingen WHO Ulmenweg,Bstg. A,tub:09003::R:j25:163,2025-11-11,0.0,48.51624,9.05388,2025-11-11 17:00,11.8,0.0,5.8,30,63,1017.0,75,dry,partly-cloudy-night,64012,Rottenburg-Kiebingen
de:08416:11000,de:08416:11000:11:A,Tübingen Hauptbahnhof,2025-11-11 17:38:00,2025-11-11 17:38:00,2,Tübingen WHO Ulmenweg,Bstg. A,tub:09002::R:j25:50,2025-11-11,0.0,48.51624,9.05388,2025-11-11 17:00,11.8,0.0,5.8,30,63,1017.0,75,dry,partly-cloudy-night,64012,Rottenburg-Kiebingen
de:08416:11000,de:08416:11000:11:A,Tübingen Hauptbahnhof,2025-11-11 17:43:00,2025-11-11 17:43:00,4,Tübingen WHO Ulmenweg,Bstg. A,tub:09004::R:j25:76,2025-11-11,0.0,48.51624,9.05388,2025-11-11 17:00,11.8,0.0,5.8,30,63,1017.0,75,dry,partly-cloudy-night,64012,Rottenburg-Kiebingen
de:08416:11000,de:08416:11000:11:A,Tübingen Hauptbahnhof,2025-11-11 17:48:00,2025-11-11 17:48:00,3,Tübingen WHO Ulmenweg,Bstg. A,tub:09003::R:j25:165,2025-11-11,0.0,48.51624,9.05388,2025-11-11 17:00,11.8,0.0,5.8,30,63,1017.0,75,dry,partly-cloudy-night,64012,Rottenburg-Kiebingen
de:08416:11000,de:08416:11000:11:A,Tübingen Hauptbahnhof,2025-11-11 17:50:00,2025-11-11 17:50:00,6,Tübingen Sand Drosselweg,Bstg. A,tub:09006::R:j25:182,2025-11-11,0.0,48.51624,9.05388,2025-11-11 17:00,11.8,0.0,5.8,30,63,1017.0,75,dry,partly-cloudy-night,64012,Rottenburg-Kiebingen
de:08416:11000,de:08416:11000:11:A,Tübingen Hauptbahnhof,2025-11-11 17:53:00,2025-11-11 17:53:00,2,Tübingen WHO Ulmenweg,Bstg. A,tub:09002::R:j25:51,2025-11-11,0.0,48.51624,9.05388,2025-11-11 17:00,11.8,0.0,5.8,30,63,1017.0,75,dry,partly-cloudy-night,64012,Rottenburg-Kiebingen
de:08416:11000,de:08416:11000:11:A,Tübingen Hauptbahnhof,2025-11-11 17:58:00,2025-11-11 17:58:00,4,Tübingen WHO Ulmenweg,Bstg. A,tub:09004::R:j25:77,2025-11-11,0.0,48.51624,9.05388,2025-11-11 17:00,11.8,0.0,5.8,30,63,1017.0,75,dry,partly-cloudy-night,64012,Rottenburg-Kiebingen
de:08416:11000,de:08416:11000:11:A,Tübingen Hauptbahnhof,2025-11-11 18:03:00,2025-11-11 18:03:00,3,Tübingen WHO Ulmenweg,Bstg. A,tub:09003::R:j25:167,2025-11-11,0.0,48.51624,9.05388,2025-11-11 17:00,11.8,0.0,5.8,30,63,1017.0,75,dry,partly-cloudy-night,64012,Rottenburg-Kiebingen
de:08416:11000,de:08416:11000:11:A,Tübingen Hauptbahnhof,2025-11-11 18:08:00,2025-11-11 18:08:00,2,Tübingen WHO Ulmenweg,Bstg. A,tub:09002::R:j25:52,2025-11-11,0.0,48.51624,9.05388,2025-11-11 17:00,11.8,0.0,5.8,30,63,1017.0,75,dry,partly-cloudy-night,64012,Rottenburg-Kiebingen
de:08416:11000,de:08416:11000:12:E,Tübingen Hauptbahnhof,2025-11-11 17:14:00,2025-11-11 17:14:00,5,Tübingen Derend. Käppele,Bstg. E,tub:09005::H:j25:631,2025-11-11,0.0,48.51624,9.05388,2025-11-11 17:00,11.8,0.0,5.8,30,63,1017.0,75,dry,partly-cloudy-night,64012,Rottenburg-Kiebingen
de:08416:11000,de:08416:11000:12:E,Tübingen Hauptbahnhof,2025-11-11 17:26:00,2025-11-11 17:26:00,16,Tübingen Horn-Straße,Bstg. E,tub:09016::R:j25:51,2025-11-11,0.0,48.51624,9.05388,2025-11-11 17:00,11.8,0.0,5.8,30,63,1017.0,75,dry,partly-cloudy-night,64012,Rottenburg-Kiebingen
de:08416:11000,de:08416:11000:12:E,Tübingen Hauptbahnhof,2025-11-11 17:33:00,2025-11-11 17:33:00,3,Tübingen Nelkenweg,Bstg. E,tub:09003::H:j25:613,2025-11-11,0.0,48.51624,9.05388,2025-11-11 17:00,11.8,0.0,5.8,30,63,1017.0,75,dry,partly-cloudy-night,64012,Rottenburg-Kiebingen
de:08416:11000,de:08416:11000:12:E,Tübingen Hauptbahnhof,2025-11-11 17:44:00,,5,Tübingen Derend. Käppele,Bstg. E,tub:09005::H:j25:637,2025-11-11,,48.51624,9.05388,2025-11-11 17:00,11.8,0.0,5.8,30,63,1017.0,75,dry,partly-cloudy-night,64012,Rottenburg-Kiebingen
de:08416:11000,de:08416:11000:12:E,Tübingen Hauptbahnhof,2025-11-11 17:56:00,,16,Tübingen Horn-Straße,Bstg. E,tub:09016::R:j25:53,2025-11-11,,48.51624,9.05388,2025-11-11 17:00,11.8,0.0,5.8,30,63,1017.0,75,dry,partly-cloudy-night,64012,Rottenburg-Kiebingen
de:08416:11000,de:08416:11000:12:E,Tübingen Hauptbahnhof,2025-11-11 18:03:00,2025-11-11 18:03:00,3,Tübingen Nelkenweg,Bstg. E,tub:09003::H:j25:618,2025-11-11,0.0,48.51624,9.05388,2025-11-11 17:00,11.8,0.0,5.8,30,63,1017.0,75,dry,partly-cloudy-night,64012,Rottenburg-Kiebingen
de:08416:11000,de:08416:11000:11:C,Tübingen Hauptbahnhof,2025-11-11 17:15:00,2025-11-11 17:15:00,7,Pfrondorf Lindenstraße,Bstg. C,tub:09007::R:j25:162,2025-11-11,0.0,48.51624,9.05388,2025-11-11 17:00,11.8,0.0,5.8,30,63,1017.0,75,dry,partly-cloudy-night,64012,Rottenburg-Kiebingen
de:08416:11000,de:08416:11000:11:C,Tübingen Hauptbahnhof,2025-11-11 17:23:00,,1,Tübingen Stauden,Bstg. C,tub:09001::R:j25:669,2025-11-11,,48.51624,9.05388,2025-11-11 17:00,11.8,0.0,5.8,30,63,1017.0,75,dry,partly-cloudy-night,64012,Rottenburg-Kiebingen
de:08416:11000,de:08416:11000:11:C,Tübingen Hauptbahnhof,2025-11-11 17:30:00,2025-11-11 17:30:00,7,Pfrondorf Lindenstraße,Bstg. C,tub:09007::R:j25:163,2025-11-11,0.0,48.51624,9.05388,2025-11-11 17:00,11.8,0.0,5.8,30,63,1017.0,75,dry,partly-cloudy-night,64012,Rottenburg-Kiebingen
de:08416:11000,de:08416:11000:11:C,Tübingen Hauptbahnhof,2025-11-11 17:38:00,2025-11-11 17:38:00,1,Tübingen Stauden,Bstg. C,tub:09001::R:j25:671,2025-11-11,0.0,48.51624,9.05388,2025-11-11 17:00,11.8,0.0,5.8,30,63,1017.0,75,dry,partly-cloudy-night,64012,Rottenburg-Kiebingen
de:08416:11000,de:08416:11000:11:C,Tübingen Hauptbahnhof,2025-11-11 17:45:00,2025-11-11 17:45:00,7,Pfrondorf Lindenstraße,Bstg. C,tub:09007::R:j25:164,2025-11-11,0.0,48.51624,9.05388,2025-11-11 17:00,11.8,0.0,5.8,30,63,1017.0,75,dry,partly-cloudy-night,64012,Rottenburg-Kiebingen
de:08416:11000,de:08416:11000:11:C,Tübingen Hauptbahnhof,2025-11-11 17:53:00,2025-11-11 17:53:00,1,Tübingen Stauden,Bstg. C,tub:09001::R:j25:673,2025-11-11,0.0,48.51624,9.05388,2025-11-11 17:00,11.8,0.0,5.8,30,63,1017.0,75,dry,partly-cloudy-night,64012,Rottenburg-Kiebingen
de:08416:11000,de:08416:11000:11:C,Tübingen Hauptbahnhof,2025-11-11 18:00:00,2025-11-11 18:00:00,7,Pfrondorf Lindenstraße,Bstg. C,tub:09007::R:j25:165,2025-11-11,0.0,48.51624,9.05388,2025-11-11 17:00,11.8,0.0,5.8,30,63,1017.0,75,dry,partly-cloudy-night,64012,Rottenburg-Kiebingen
de:08416:11000,de:08416:11000:11:C,Tübingen Hauptbahnhof,2025-11-11 18:08:00,2025-11-11 18:08:00,1,Tübingen Stauden,Bstg. C,tub:09001::R:j25:675,2025-11-11,0.0,48.51624,9.05388,2025-11-11 17:00,11.8,0.0,5.8,30,63,1017.0,75,dry,partly-cloudy-night,64012,Rottenburg-Kiebingen
de:08416:11000,de:08416:11000:14:I,Tübingen Hauptbahnhof,2025-11-11 17:17:00,,11,Tübingen Schwärzlocher Str. 45,Bstg. I,tub:09011::R:j25:23,2025-11-11,,48.51624,9.05388,2025-11-11 17:00,11.8,0.0,5.8,30,63,1017.0,75,dry,partly-cloudy-night,64012,Rottenburg-Kiebingen
de:08416:11000,de:08416:11000:14:I,Tübingen Hauptbahnhof,2025-11-11 17:32:00,2025-11-11 17:32:00,12,Tübingen Weststadt,Bstg. I,tub:09012::R:j25:48,2025-11-11,0.0,48.51624,9.05388,2025-11-11 17:00,11.8,0.0,5.8,30,63,1017.0,75,dry,partly-cloudy-night,64012,Rottenburg-Kiebingen
de:08416:11000,de:08416:11000:14:I,Tübingen Hauptbahnhof,2025-11-11 17:47:00,2025-11-11 17:47:00,9,Tübingen Bismarckturm,Bstg. I,tub:09009::R:j25:13,2025-11-11,0.0,48.51624,9.05388,2025-11-11 17:00,11.8,0.0,5.8,30,63,1017.0,75,dry,partly-cloudy-night,64012,Rottenburg-Kiebingen
de:08416:11000,de:08416:11000:14:I,Tübingen Hauptbahnhof,2025-11-11 18:02:00,2025-11-11 18:02:00,12,Tübingen Weststadt,Bstg. I,tub:09012::R:j25:50,2025-11-11,0.0,48.51624,9.05388,2025-11-11 17:00,11.8,0.0,5.8,30,63,1017.0,75,dry,partly-cloudy-night,64012,Rottenburg-Kiebingen
de:08416:11000,de:08416:11000:15:N,Tübingen Hauptbahnhof,2025-11-11 17:20:00,,7625,Gomaringen ZOB,Bstg. N,tub:80625::H:j25:102,2025-11-11,,48.51624,9.05388,2025-11-11 17:00,11.8,0.0,5.8,30,63,1017.0,75,dry,partly-cloudy-night,64012,Rottenburg-Kiebingen
de:08416:11000,de:08416:11000:15:N,Tübingen Hauptbahnhof,2025-11-11 17:35:00,2025-11-11 17:39:24,7625,Gomaringen ZOB,Bstg. N,tub:80625::H:j25:131,2025-11-11,4.4,48.51624,9.05388,2025-11-11 17:00,11.8,0.0,5.8,30,63,1017.0,75,dry,partly-cloudy-night,64012,Rottenburg-Kiebingen
de:08416:11000,de:08416:11000:15:N,Tübingen Hauptbahnhof,2025-11-11 17:50:00,2025-11-11 17:50:00,7625,Gomaringen ZOB,Bstg. N,tub:80625::H:j25:85,2025-11-11,0.0,48.51624,9.05388,2025-11-11 17:00,11.8,0.0,5.8,30,63,1017.0,75,dry,partly-cloudy-night,64012,Rottenburg-Kiebingen
de:08416:11000,de:08416:11000:15:N,Tübingen Hauptbahnhof,2025-11-11 18:05:00,2025-11-11 18:05:00,7625,Gomaringen ZOB,Bstg. N,tub:80625::H:j25:122,2025-11-11,0.0,48.51624,9.05388,2025-11-11 17:00,11.8,0.0,5.8,30,63,1017.0,75,dry,partly-cloudy-night,64012,Rottenburg-Kiebingen
de:08416:11000,de:08416:11000:13:L,Tübingen Hauptbahnhof,2025-11-11 17:22:00,2025-11-11 17:22:00,7611,Betzingen Ferd.-Lassalle-Str.,Bstg. L,tub:34611::H:j25:114,2025-11-11,0.0,48.51624,9.05388,2025-11-11 17:00,11.8,0.0,5.8,30,63,1017.0,75,dry,partly-cloudy-night,64012,Rottenburg-Kiebingen
de:08416:11000,de:08416:11000:13:L,Tübingen Hauptbahnhof,2025-11-11 17:37:00,2025-11-11 17:37:00,7611,Reutlingen Hauptbahnhof,Bstg. L,tub:34611::H:j25:131,2025-11-11,0.0,48.51624,9.05388,2025-11-11 17:00,11.8,0.0,5.8,30,63,1017.0,75,dry,partly-cloudy-night,64012,Rottenburg-Kiebingen
de:08416:11000,de:08416:11000:13:L,Tübingen Hauptbahnhof,2025-11-11 17:52:00,2025-11-11 17:52:00,7611,Kusterd. Altes Rathaus,Bstg. L,tub:34611::H:j25:118,2025-11-11,0.0,48.51624,9.05388,2025-11-11 17:00,11.8,0.0,5.8,30,63,1017.0,75,dry,partly-cloudy-night,64012,Rottenburg-Kiebingen
de:08416:11000,de:08416:11000:13:L,Tübingen Hauptbahnhof,2025-11-11 18:07:00,2025-11-11 18:07:00,7611,Jettenburg Brunnenplatz,Bstg. L,tub:34611::H:j25:101,2025-11-11,0.0,48.51624,9.05388,2025-11-11 17:00,11.8,0.0,5.8,30,63,1017.0,75,dry,partly-cloudy-night,64012,Rottenburg-Kiebingen
de:08416:11000,de:08416:11000:14:J,Tübingen Hauptbahnhof,2025-11-11 17:06:00,2025-11-11 17:16:00,18,Oberndorf Feuersee,Bstg. J,tub:33018::H:j25:125,2025-11-11,10.0,48.51624,9.05388,2025-11-11 17:00,11.8,0.0,5.8,30,63,1017.0,75,dry,partly-cloudy-night,64012,Rottenburg-Kiebingen
de:08416:11000,de:08416:11000:14:J,Tübingen Hauptbahnhof,2025-11-11 17:21:00,2025-11-11 17:30:18,18,Rottenburg E.-Bolz-Platz,Bstg. J,tub:33018::H:j25:208,2025-11-11,9.3,48.51624,9.05388,2025-11-11 17:00,11.8,0.0,5.8,30,63,1017.0,75,dry,partly-cloudy-night,64012,Rottenburg-Kiebingen
de:08416:11000,de:08416:11000:14:J,Tübingen Hauptbahnhof,2025-11-11 17:36:00,2025-11-11 17:47:18,18,Poltringen Ammerbrücke,Bstg. J,tub:33018::H:j25:141,2025-11-11,11.3,48.51624,9.05388,2025-11-11 17:00,11.8,0.0,5.8,30,63,1017.0,75,dry,partly-cloudy-night,64012,Rottenburg-Kiebingen
de:08416:11000,de:08416:11000:13:K,Tübingen Hauptbahnhof,2025-11-11 17:24:00,2025-11-11 17:24:00,16,Tübingen Hagellocher Weg,Bstg. K,tub:09016::H:j25:141,2025-11-11,0.0,48.51624,9.05388,2025-11-11 17:00,11.8,0.0,5.8,30,63,1017.0,75,dry,partly-cloudy-night,64012,Rottenburg-Kiebingen
de:08416:11000,de:08416:11000:13:K,Tübingen Hauptbahnhof,2025-11-11 17:39:00,2025-11-11 17:39:00,8,Hagelloch Dornäckerweg,Bstg. K,tub:09008::R:j25:315,2025-11-11,0.0,48.51624,9.05388,2025-11-11 17:00,11.8,0.0,5.8,30,63,1017.0,75,dry,partly-cloudy-night,64012,Rottenburg-Kiebingen
de:08416:11000,de:08416:11000:13:K,Tübingen Hauptbahnhof,2025-11-11 17:54:00,2025-11-11 17:54:00,16,Tübingen Hagellocher Weg,Bstg. K,tub:09016::H:j25:143,2025-11-11,0.0,48.51624,9.05388,2025-11-11 17:00,11.8,0.0,5.8,30,63,1017.0,75,dry,partly-cloudy-night,64012,Rottenburg-Kiebingen
de:08416:11000,de:08416:11000:13:K,Tübingen Hauptbahnhof,2025-11-11 18:09:00,2025-11-11 18:09:00,8,Hagelloch Dornäckerweg,Bstg. K,tub:09008::R:j25:316,2025-11-11,0.0,48.51624,9.05388,2025-11-11 17:00,11.8,0.0,5.8,30,63,1017.0,75,dry,partly-cloudy-night,64012,Rottenburg-Kiebingen
de:08416:11000,de:08416:11000:4:6,Tübingen Hauptbahnhof,2025-11-11 17:29:00,2025-11-11 17:29:00,RB 66,Sigmaringen Bahnhof,6,ddb:90T66::H:j25:52,2025-11-11,0.0,48.51624,9.05388,2025-11-11 17:00,11.8,0.0,5.8,30,63,1017.0,75,dry,partly-cloudy-night,64012,Rottenburg-Kiebingen
de:08416:11000,de:08416:11000:4:6,Tübingen Hauptbahnhof,2025-11-11 18:09:00,,RB 66,Ebingen Bahnhof,6,ddb:90T66::H:j25:54,2025-11-11,,48.51624,9.05388,2025-11-11 17:00,11.8,0.0,5.8,30,63,1017.0,75,dry,partly-cloudy-night,64012,Rottenburg-Kiebingen
de:08416:11000,de:08416:11000:3:12,Tübingen Hauptbahnhof,2025-11-11 17:29:00,2025-11-11 17:32:00,RB 74,Horb Bahnhof/ZOB,12,ddb:90T74::R:j25:329,2025-11-11,3.0,48.51624,9.05388,2025-11-11 17:00,11.8,0.0,5.8,30,63,1017.0,75,dry,partly-cloudy-night,64012,Rottenburg-Kiebingen
de:08416:11000,de:08416:11000:3:12,Tübingen Hauptbahnhof,2025-11-11 18:06:00,,RB 74,Rottenburg Bahnhof,12,ddb:90T74::R:j25:362,2025-11-11,,48.51624,9.05388,2025-11-11 17:00,11.8,0.0,5.8,30,63,1017.0,75,dry,partly-cloudy-night,64012,Rottenburg-Kiebingen
de:08416:11000,de:08416:11000:4:5,Tübingen Hauptbahnhof,2025-11-11 17:33:00,2025-11-11 17:33:00,MEX18,Heilbronn Hauptbahnhof,5,ddb:90T18:S:R:j25:554,2025-11-11,0.0,48.51624,9.05388,2025-11-11 17:00,11.8,0.0,5.8,30,63,1017.0,75,dry,partly-cloudy-night,64012,Rottenburg-Kiebingen
de:08416:11000,de:08416:11000:4:5,Tübingen Hauptbahnhof,2025-11-11 18:05:00,2025-11-11 18:05:00,MEX12,Heilbronn Hauptbahnhof,5,ddb:90T12:S:R:j25:521,2025-11-11,0.0,48.51624,9.05388,2025-11-11 17:00,11.8,0.0,5.8,30,63,1017.0,75,dry,partly-cloudy-night,64012,Rottenburg-Kiebingen
de:08416:11000,de:08416:11000:2:1,Tübingen Hauptbahnhof,2025-11-11 17:39:00,2025-11-11 17:39:00,RB 63,Reutlingen Hauptbahnhof,1,ddb:90T63::H:j25:123,2025-11-11,0.0,48.51624,9.05388,2025-11-11 17:00,11.8,0.0,5.8,30,63,1017.0,75,dry,partly-cloudy-night,64012,Rottenburg-Kiebingen
de:08416:11000,de:08416:11000:2:1,Tübingen Hauptbahnhof,2025-11-11 18:09:00,,RB 63,Reutlingen Hauptbahnhof,1,ddb:90T63::H:j25:127,2025-11-11,,48.51624,9.05388,2025-11-11 17:00,11.8,0.0,5.8,30,63,1017.0,75,dry,partly-cloudy-night,64012,Rottenburg-Kiebingen
de:08416:11000,de:08416:11000:15:O,Tübingen Hauptbahnhof,2025-11-11 17:54:00,2025-11-11 17:54:00,7613,Mössingen Melanchthonstr.,Bstg. O,tub:80613::R:j25:4,2025-11-11,0.0,48.51624,9.05388,2025-11-11 17:00,11.8,0.0,5.8,30,63,1017.0,75,dry,partly-cloudy-night,64012,Rottenburg-Kiebingen
de:08416:11000,de:08416:11000:3:3,Tübingen Hauptbahnhof,2025-11-11 17:58:00,2025-11-11 17:58:00,RE 6,Stuttgart Hauptbahnhof (oben),3,ddb:90T06:S:R:j25:54,2025-11-11,0.0,48.51624,9.05388,2025-11-11 17:00,11.8,0.0,5.8,30,63,1017.0,75,dry,partly-cloudy-night,64012,Rottenburg-Kiebingen
de:08416:10045,de:08416:10045:0:4,Tübingen Biesingerstraße,2025-11-11 17:10:18,2025-11-11 17:10:18,6,Tübingen Hauptbahnhof,,tub:09006::R:j25:23,2025-11-11,0.0,48.51682,9.0437,2025-11-11 17:00,11.8,0.0,5.8,30,63,1017.0,75,dry,partly-cloudy-night,64012,Rottenburg-Kiebingen
de:08416:10045,de:08416:10045:0:4,Tübingen Biesingerstraße,2025-11-11 17:40:18,2025-11-11 17:40:18,6,Tübingen Hauptbahnhof,,tub:09006::R:j25:24,2025-11-11,0.0,48.51682,9.0437,2025-11-11 17:00,11.8,0.0,5.8,30,63,1017.0,75,dry,partly-cloudy-night,64012,Rottenburg-Kiebingen
de:08416:10045,de:08416:10045:0:1,Tübingen Biesingerstraße,2025-11-11 17:35:36,2025-11-11 17:35:36,6,Tübingen Hirschauer Straße,,tub:09006::H:j25:212,2025-11-11,0.0,48.51682,9.0437,2025-11-11 17:00,11.8,0.0,5.8,30,63,1017.0,75,dry,partly-cloudy-night,64012,Rottenburg-Kiebingen
de:08416:10045,de:08416:10045:0:1,Tübingen Biesingerstraße,2025-11-11 18:05:36,2025-11-11 18:05:36,6,Tübingen Hirschauer Straße,,tub:09006::H:j25:213,2025-11-11,0.0,48.51682,9.0437,2025-11-11 17:00,11.8,0.0,5.8,30,63,1017.0,75,dry,partly-cloudy-night,64012,Rottenburg-Kiebingen
de:08416:10014,de:08416:10014:1:4,Tübingen Haagtor,2025-11-11 17:35:06,2025-11-11 17:35:06,11,Tübingen Schwärzlocher Str. 45,,tub:09011::R:j25:23,2025-11-11,0.0,48.52071,9.04877,2025-11-11 17:00,11.8,0.0,5.8,30,63,1017.0,75,dry,partly-cloudy-night,64012,Rottenburg-Kiebingen
de:08416:10014,de:08416:10014:1:4,Tübingen Haagtor,2025-11-11 17:35:06,,11,Tübingen Hauptbahnhof,,tub:09011::H:j25:131,2025-11-11,,48.52071,9.04877,2025-11-11 17:00,11.8,0.0,5.8,30,63,1017.0,75,dry,partly-cloudy-night,64012,Rottenburg-Kiebingen
de:08416:10014,de:08416:10014:1:4,Tübingen Haagtor,2025-11-11 18:09:12,2025-11-11 18:09:12,9,Tübingen Hauptbahnhof,,tub:09009::H:j25:68,2025-11-11,0.0,48.52071,9.04877,2025-11-11 17:00,11.8,0.0,5.8,30,63,1017.0,75,dry,partly-cloudy-night,64012,Rottenburg-Kiebingen
de:08416:10014,de:08416:10014:2:8,Tübingen Haagtor,2025-11-11 17:56:42,2025-11-11 17:56:42,9,Tübingen Bismarckturm,,tub:09009::R:j25:13,2025-11-11,0.0,48.52071,9.04877,2025-11-11 17:00,11.8,0.0,5.8,30,63,1017.0,75,dry,partly-cloudy-night,64012,Rottenburg-Kiebingen
de:08416:10501,de:08416:10501:0:4,Tübingen Neckarbrücke,2025-11-11 17:04:00,2025-11-11 17:14:00,18,Oberndorf Feuersee,,tub:33018::H:j25:125,2025-11-11,10.0,48.51863,9.05795,2025-11-11 17:00,11.8,0.0,5.8,30,63,1017.0,75,dry,partly-cloudy-night,64012,Rottenburg-Kiebingen
de:08416:10501,de:08416:10501:0:4,Tübingen Neckarbrücke,2025-11-11 17:11:54,2025-11-11 17:11:54,7,Tübingen Hauptbahnhof,,tub:09007::H:j25:46,2025-11-11,0.0,48.51863,9.05795,2025-11-11 17:00,11.8,0.0,5.8,30,63,1017.0,75,dry,partly-cloudy-night,64012,Rottenburg-Kiebingen
de:08416:10501,de:08416:10501:0:4,Tübingen Neckarbrücke,2025-11-11 17:11:54,2025-11-11 17:11:54,2,Tübingen Hauptbahnhof,,tub:09002::H:j25:283,2025-11-11,0.0,48.51863,9.05795,2025-11-11 17:00,11.8,0.0,5.8,30,63,1017.0,75,dry,partly-cloudy-night,64012,Rottenburg-Kiebingen
de:08416:10501,de:08416:10501:0:4,Tübingen Neckarbrücke,2025-11-11 17:13:54,2025-11-11 17:13:54,9,Tübingen Hauptbahnhof,,tub:09009::H:j25:67,2025-11-11,0.0,48.51863,9.05795,2025-11-11 17:00,11.8,0.0,5.8,30,63,1017.0,75,dry,partly-cloudy-night,64012,Rottenburg-Kiebingen
de:08416:10501,de:08416:10501:0:4,Tübingen Neckarbrücke,2025-11-11 17:13:54,2025-11-11 17:13:54,13,Tübingen Aixer Straße,,tub:09013::H:j25:205,2025-11-11,0.0,48.51863,9.05795,2025-11-11 17:00,11.8,0.0,5.8,30,63,1017.0,75,dry,partly-cloudy-night,64012,Rottenburg-Kiebingen
de:08416:10501,de:08416:10501:0:4,Tübingen Neckarbrücke,2025-11-11 17:13:54,2025-11-11 17:13:54,3,Tübingen Hauptbahnhof,,tub:09003::H:j25:609,2025-11-11,0.0,48.51863,9.05795,2025-11-11 17:00,11.8,0.0,5.8,30,63,1017.0,75,dry,partly-cloudy-night,64012,Rottenburg-Kiebingen
de:08416:10501,de:08416:10501:0:4,Tübingen Neckarbrücke,2025-11-11 17:16:24,2025-11-11 17:16:24,21,Tübingen Düsseldorfer Str.,,tub:09021::R:j25:53,2025-11-11,0.0,48.51863,9.05795,2025-11-11 17:00,11.8,0.0,5.8,30,63,1017.0,75,dry,partly-cloudy-night,64012,Rottenburg-Kiebingen
de:08416:10501,de:08416:10501:0:4,Tübingen Neckarbrücke,2025-11-11 17:18:54,2025-11-11 17:18:54,1,Tübingen Hauptbahnhof,,tub:09001::H:j25:96,2025-11-11,0.0,48.51863,9.05795,2025-11-11 17:00,11.8,0.0,5.8,30,63,1017.0,75,dry,partly-cloudy-night,64012,Rottenburg-Kiebingen
de:08416:10501,de:08416:10501:0:4,Tübingen Neckarbrücke,2025-11-11 17:18:54,2025-11-11 17:18:54,5,Tübingen Hauptbahnhof,,tub:09005::H:j25:633,2025-11-11,0.0,48.51863,9.05795,2025-11-11 17:00,11.8,0.0,5.8,30,63,1017.0,75,dry,partly-cloudy-night,64012,Rottenburg-Kiebingen
de:08416:10501,de:08416:10501:0:4,Tübingen Neckarbrücke,2025-11-11 17:18:54,2025-11-11 17:18:54,32,Tübingen Hauptbahnhof,,tub:09032::H:j25:57,2025-11-11,0.0,48.51863,9.05795,2025-11-11 17:00,11.8,0.0,5.8,30,63,1017.0,75,dry,partly-cloudy-night,64012,Rottenburg-Kiebingen
de:08416:10501,de:08416:10501:0:4,Tübingen Neckarbrücke,2025-11-11 17:19:00,2025-11-11 17:28:18,18,Rottenburg E.-Bolz-Platz,,tub:33018::H:j25:208,2025-11-11,9.3,48.51863,9.05795,2025-11-11 17:00,11.8,0.0,5.8,30,63,1017.0,75,dry,partly-cloudy-night,64012,Rottenburg-Kiebingen
de:08416:10501,de:08416:10501:0:4,Tübingen Neckarbrücke,2025-11-11 17:21:42,2025-11-11 17:21:42,16,Steinlachwasen,,tub:09016::R:j25:65534,2025-11-11,0.0,48.51863,9.05795,2025-11-11 17:00,11.8,0.0,5.8,30,63,1017.0,75,dry,partly-cloudy-night,64012,Rottenburg-Kiebingen
de:08416:10501,de:08416:10501:0:4,Tübingen Neckarbrücke,2025-11-11 17:21:42,2025-11-11 17:21:42,16,Tübingen Horn-Straße,,tub:09016::R:j25:51,2025-11-11,0.0,48.51863,9.05795,2025-11-11 17:00,11.8,0.0,5.8,30,63,1017.0,75,dry,partly-cloudy-night,64012,Rottenburg-Kiebingen
de:08416:10501,de:08416:10501:0:4,Tübingen Neckarbrücke,2025-11-11 17:21:54,2025-11-11 17:21:54,4,Tübingen Wennf. Garten,,tub:09004::H:j25:368,2025-11-11,0.0,48.51863,9.05795,2025-11-11 17:00,11.8,0.0,5.8,30,63,1017.0,75,dry,partly-cloudy-night,64012,Rottenburg-Kiebingen
de:08416:10501,de:08416:10501:0:4,Tübingen Neckarbrücke,2025-11-11 17:22:54,2025-11-11 17:22:54,10,Tübingen Hauptbahnhof,,tub:09010::H:j25:27,2025-11-11,0.0,48.51863,9.05795,2025-11-11 17:00,11.8,0.0,5.8,30,63,1017.0,75,dry,partly-cloudy-night,64012,Rottenburg-Kiebingen
de:08416:10501,de:08416:10501:0:4,Tübingen Neckarbrücke,2025-11-11 17:24:00,,19,Bühl Römerstraße,,rab:24019::H:25a:231,2025-11-11,,48.51863,9.05795,2025-11-11 17:00,11.8,0.0,5.8,30,63,1017.0,75,dry,partly-cloudy-night,64012,Rottenburg-Kiebingen
de:08416:10501,de:08416:10501:0:4,Tübingen Neckarbrücke,2025-11-11 17:26:54,2025-11-11 17:26:54,7,Tübingen Hauptbahnhof,,tub:09007::H:j25:47,2025-11-11,0.0,48.51863,9.05795,2025-11-11 17:00,11.8,0.0,5.8,30,63,1017.0,75,dry,partly-cloudy-night,64012,Rottenburg-Kiebingen
de:08416:10501,de:08416:10501:0:4,Tübingen Neckarbrücke,2025-11-11 17:26:54,,22,Tübingen Hauptbahnhof,,tub:09022::R:j25:25,2025-11-11,,48.51863,9.05795,2025-11-11 17:00,11.8,0.0,5.8,30,63,1017.0,75,dry,partly-cloudy-night,64012,Rottenburg-Kiebingen
de:08416:10501,de:08416:10501:0:4,Tübingen Neckarbrücke,2025-11-11 17:26:54,2025-11-11 17:26:54,2,Tübingen Hauptbahnhof,,tub:09002::H:j25:284,2025-11-11,0.0,48.51863,9.05795,2025-11-11 17:00,11.8,0.0,5.8,30,63,1017.0,75,dry,partly-cloudy-night,64012,Rottenburg-Kiebingen
de:08416:10501,de:08416:10501:0:4,Tübingen Neckarbrücke,2025-11-11 17:27:54,2025-11-11 17:27:54,6,Tübingen Hauptbahnhof,,tub:09006::H:j25:370,2025-11-11,0.0,48.51863,9.05795,2025-11-11 17:00,11.8,0.0,5.8,30,63,1017.0,75,dry,partly-cloudy-night,64012,Rottenburg-Kiebingen
de:08416:10501,de:08416:10501:0:4,Tübingen Neckarbrücke,2025-11-11 17:28:54,2025-11-11 17:28:54,5,Tübingen Hauptbahnhof,,tub:09005::H:j25:634,2025-11-11,0.0,48.51863,9.05795,2025-11-11 17:00,11.8,0.0,5.8,30,63,1017.0,75,dry,partly-cloudy-night,64012,Rottenburg-Kiebingen
de:08416:10501,de:08416:10501:0:4,Tübingen Neckarbrücke,2025-11-11 17:28:54,2025-11-11 17:28:54,3,Tübingen Nelkenweg,,tub:09003::H:j25:613,2025-11-11,0.0,48.51863,9.05795,2025-11-11 17:00,11.8,0.0,5.8,30,63,1017.0,75,dry,partly-cloudy-night,64012,Rottenburg-Kiebingen
de:08416:10501,de:08416:10501:0:4,Tübingen Neckarbrücke,2025-11-11 17:29:12,2025-11-11 17:29:12,12,Tübingen Hauptbahnhof,,tub:09012::H:j25:148,2025-11-11,0.0,48.51863,9.05795,2025-11-11 17:00,11.8,0.0,5.8,30,63,1017.0,75,dry,partly-cloudy-night,64012,Rottenburg-Kiebingen
de:08416:10501,de:08416:10501:0:4,Tübingen Neckarbrücke,2025-11-11 17:33:54,2025-11-11 17:33:54,1,Tübingen Franz. Viertel,,tub:09001::H:j25:98,2025-11-11,0.0,48.51863,9.05795,2025-11-11 17:00,11.8,0.0,5.8,30,63,1017.0,75,dry,partly-cloudy-night,64012,Rottenburg-Kiebingen
de:08416:10501,de:08416:10501:0:4,Tübingen Neckarbrücke,2025-11-11 17:33:54,2025-11-11 17:33:54,8,Tübingen Hauptbahnhof,,tub:09008::H:j25:47,2025-11-11,0.0,48.51863,9.05795,2025-11-11 17:00,11.8,0.0,5.8,30,63,1017.0,75,dry,partly-cloudy-night,64012,Rottenburg-Kiebingen
de:08416:10501,de:08416:10501:0:4,Tübingen Neckarbrücke,2025-11-11 17:34:00,2025-11-11 17:45:18,18,Poltringen Ammerbrücke,,tub:33018::H:j25:141,2025-11-11,11.3,48.51863,9.05795,2025-11-11 17:00,11.8,0.0,5.8,30,63,1017.0,75,dry,partly-cloudy-night,64012,Rottenburg-Kiebingen
de:08416:10501,de:08416:10501:0:4,Tübingen Neckarbrücke,2025-11-11 17:36:54,2025-11-11 17:36:54,4,Tübingen Hauptbahnhof,,tub:09004::H:j25:370,2025-11-11,0.0,48.51863,9.05795,2025-11-11 17:00,11.8,0.0,5.8,30,63,1017.0,75,dry,partly-cloudy-night,64012,Rottenburg-Kiebingen
de:08416:10501,de:08416:10501:0:4,Tübingen Neckarbrücke,2025-11-11 17:38:54,,5,Tübingen Derend. Käppele,,tub:09005::H:j25:637,2025-11-11,,48.51863,9.05795,2025-11-11 17:00,11.8,0.0,5.8,30,63,1017.0,75,dry,partly-cloudy-night,64012,Rottenburg-Kiebingen
de:08416:10501,de:08416:10501:0:4,Tübingen Neckarbrücke,2025-11-11 17:39:48,,11,Tübingen Hauptbahnhof,,tub:09011::H:j25:131,2025-11-11,,48.51863,9.05795,2025-11-11 17:00,11.8,0.0,5.8,30,63,1017.0,75,dry,partly-cloudy-night,64012,Rottenburg-Kiebingen
de:08416:10501,de:08416:10501:0:4,Tübingen Neckarbrücke,2025-11-11 17:39:48,2025-11-11 17:39:48,11,Tübingen Schwärzlocher Str. 45,,tub:09011::R:j25:23,2025-11-11,0.0,48.51863,9.05795,2025-11-11 17:00,11.8,0.0,5.8,30,63,1017.0,75,dry,partly-cloudy-night,64012,Rottenburg-Kiebingen
de:08416:10501,de:08416:10501:0:4,Tübingen Neckarbrücke,2025-11-11 17:41:54,,7,Hauptbahnhof,,tub:09007::H:j25:65533,2025-11-11,,48.51863,9.05795,2025-11-11 17:00,11.8,0.0,5.8,30,63,1017.0,75,dry,partly-cloudy-night,64012,Rottenburg-Kiebingen
de:08416:10501,de:08416:10501:0:4,Tübingen Neckarbrücke,2025-11-11 17:41:54,2025-11-11 17:41:54,7,Hauptbahnhof,,tub:09007::H:j25:65534,2025-11-11,0.0,48.51863,9.05795,2025-11-11 17:00,11.8,0.0,5.8,30,63,1017.0,75,dry,partly-cloudy-night,64012,Rottenburg-Kiebingen
de:08416:10501,de:08416:10501:0:4,Tübingen Neckarbrücke,2025-11-11 17:41:54,2025-11-11 17:41:54,7,Tübingen Hauptbahnhof,,tub:09007::H:j25:48,2025-11-11,0.0,48.51863,9.05795,2025-11-11 17:00,11.8,0.0,5.8,30,63,1017.0,75,dry,partly-cloudy-night,64012,Rottenburg-Kiebingen
de:08416:10501,de:08416:10501:0:4,Tübingen Neckarbrücke,2025-11-11 17:41:54,2025-11-11 17:41:54,2,Tübingen Hauptbahnhof,,tub:09002::H:j25:285,2025-11-11,0.0,48.51863,9.05795,2025-11-11 17:00,11.8,0.0,5.8,30,63,1017.0,75,dry,partly-cloudy-night,64012,Rottenburg-Kiebingen
de:08416:10501,de:08416:10501:0:4,Tübingen Neckarbrücke,2025-11-11 17:43:54,2025-11-11 17:43:54,13,Tübingen Aixer Straße,,tub:09013::H:j25:274,2025-11-11,0.0,48.51863,9.05795,2025-11-11 17:00,11.8,0.0,5.8,30,63,1017.0,75,dry,partly-cloudy-night,64012,Rottenburg-Kiebingen
de:08416:10501,de:08416:10501:0:4,Tübingen Neckarbrücke,2025-11-11 17:43:54,2025-11-11 17:43:54,3,Tübingen Hauptbahnhof,,tub:09003::H:j25:614,2025-11-11,0.0,48.51863,9.05795,2025-11-11 17:00,11.8,0.0,5.8,30,63,1017.0,75,dry,partly-cloudy-night,64012,Rottenburg-Kiebingen
de:08416:10501,de:08416:10501:0:4,Tübingen Neckarbrücke,2025-11-11 17:44:30,2025-11-11 17:44:30,17,Tübingen Hauptbahnhof,,tub:09017::H:j25:52,2025-11-11,0.0,48.51863,9.05795,2025-11-11 17:00,11.8,0.0,5.8,30,63,1017.0,75,dry,partly-cloudy-night,64012,Rottenburg-Kiebingen
de:08416:10501,de:08416:10501:0:4,Tübingen Neckarbrücke,2025-11-11 17:46:24,,21,Tübingen Düsseldorfer Str.,,tub:09021::R:j25:55,2025-11-11,,48.51863,9.05795,2025-11-11 17:00,11.8,0.0,5.8,30,63,1017.0,75,dry,partly-cloudy-night,64012,Rottenburg-Kiebingen
de:08416:10501,de:08416:10501:0:4,Tübingen Neckarbrücke,2025-11-11 17:48:54,2025-11-11 17:48:54,5,Tübingen Hauptbahnhof,,tub:09005::H:j25:639,2025-11-11,0.0,48.51863,9.05795,2025-11-11 17:00,11.8,0.0,5.8,30,63,1017.0,75,dry,partly-cloudy-night,64012,Rottenburg-Kiebingen
de:08416:10501,de:08416:10501:0:4,Tübingen Neckarbrücke,2025-11-11 17:48:54,2025-11-11 17:48:54,1,Tübingen Hauptbahnhof,,tub:09001::H:j25:100,2025-11-11,0.0,48.51863,9.05795,2025-11-11 17:00,11.8,0.0,5.8,30,63,1017.0,75,dry,partly-cloudy-night,64012,Rottenburg-Kiebingen
de:08416:10501,de:08416:10501:0:4,Tübingen Neckarbrücke,2025-11-11 17:51:42,,16,Tübingen Horn-Straße,,tub:09016::R:j25:53,2025-11-11,,48.51863,9.05795,2025-11-11 17:00,11.8,0.0,5.8,30,63,1017.0,75,dry,partly-cloudy-night,64012,Rottenburg-Kiebingen
de:08416:10501,de:08416:10501:0:4,Tübingen Neckarbrücke,2025-11-11 17:51:54,2025-11-11 17:51:54,4,Tübingen Wennf. Garten,,tub:09004::H:j25:371,2025-11-11,0.0,48.51863,9.05795,2025-11-11 17:00,11.8,0.0,5.8,30,63,1017.0,75,dry,partly-cloudy-night,64012,Rottenburg-Kiebingen
de:08416:10501,de:08416:10501:0:4,Tübingen Neckarbrücke,2025-11-11 17:52:54,,10,Tübingen Hauptbahnhof,,tub:09010::H:j25:28,2025-11-11,,48.51863,9.05795,2025-11-11 17:00,11.8,0.0,5.8,30,63,1017.0,75,dry,partly-cloudy-night,64012,Rottenburg-Kiebingen
de:08416:10501,de:08416:10501:0:4,Tübingen Neckarbrücke,2025-11-11 17:54:00,,19,Bühl Römerstraße,,rab:24019::H:25a:232,2025-11-11,,48.51863,9.05795,2025-11-11 17:00,11.8,0.0,5.8,30,63,1017.0,75,dry,partly-cloudy-night,64012,Rottenburg-Kiebingen
de:08416:10501,de:08416:10501:0:4,Tübingen Neckarbrücke,2025-11-11 17:56:54,2025-11-11 17:56:54,2,Tübingen Hauptbahnhof,,tub:09002::H:j25:286,2025-11-11,0.0,48.51863,9.05795,2025-11-11 17:00,11.8,0.0,5.8,30,63,1017.0,75,dry,partly-cloudy-night,64012,Rottenburg-Kiebingen
de:08416:10501,de:08416:10501:0:4,Tübingen Neckarbrücke,2025-11-11 17:56:54,2025-11-11 17:56:54,7,Tübingen Hauptbahnhof,,tub:09007::H:j25:49,2025-11-11,0.0,48.51863,9.05795,2025-11-11 17:00,11.8,0.0,5.8,30,63,1017.0,75,dry,partly-cloudy-night,64012,Rottenburg-Kiebingen
de:08416:10501,de:08416:10501:0:4,Tübingen Neckarbrücke,2025-11-11 17:56:54,2025-11-11 17:56:54,22,Tübingen Hauptbahnhof,,tub:09022::R:j25:26,2025-11-11,0.0,48.51863,9.05795,2025-11-11 17:00,11.8,0.0,5.8,30,63,1017.0,75,dry,partly-cloudy-night,64012,Rottenburg-Kiebingen
de:08416:10501,de:08416:10501:0:4,Tübingen Neckarbrücke,2025-11-11 17:57:54,2025-11-11 17:57:54,6,Tübingen Hauptbahnhof,,tub:09006::H:j25:371,2025-11-11,0.0,48.51863,9.05795,2025-11-11 17:00,11.8,0.0,5.8,30,63,1017.0,75,dry,partly-cloudy-night,64012,Rottenburg-Kiebingen
de:08416:10501,de:08416:10501:0:4,Tübingen Neckarbrücke,2025-11-11 17:58:54,2025-11-11 17:58:54,5,Tübingen Hauptbahnhof,,tub:09005::H:j25:640,2025-11-11,0.0,48.51863,9.05795,2025-11-11 17:00,11.8,0.0,5.8,30,63,1017.0,75,dry,partly-cloudy-night,64012,Rottenburg-Kiebingen
de:08416:10501,de:08416:10501:0:4,Tübingen Neckarbrücke,2025-11-11 17:58:54,2025-11-11 17:58:54,3,Tübingen Nelkenweg,,tub:09003::H:j25:618,2025-11-11,0.0,48.51863,9.05795,2025-11-11 17:00,11.8,0.0,5.8,30,63,1017.0,75,dry,partly-cloudy-night,64012,Rottenburg-Kiebingen
de:08416:10501,de:08416:10501:0:4,Tübingen Neckarbrücke,2025-11-11 17:59:12,2025-11-11 17:59:12,12,Tübingen Hauptbahnhof,,tub:09012::H:j25:150,2025-11-11,0.0,48.51863,9.05795,2025-11-11 17:00,11.8,0.0,5.8,30,63,1017.0,75,dry,partly-cloudy-night,64012,Rottenburg-Kiebingen
de:08416:10501,de:08416:10501:0:4,Tübingen Neckarbrücke,2025-11-11 18:03:54,2025-11-11 18:03:54,8,Tübingen Hauptbahnhof,,tub:09008::H:j25:48,2025-11-11,0.0,48.51863,9.05795,2025-11-11 17:00,11.8,0.0,5.8,30,63,1017.0,75,dry,partly-cloudy-night,64012,Rottenburg-Kiebingen
de:08416:10501,de:08416:10501:0:4,Tübingen Neckarbrücke,2025-11-11 18:03:54,2025-11-11 18:03:54,1,Tübingen Franz. Viertel,,tub:09001::H:j25:102,2025-11-11,0.0,48.51863,9.05795,2025-11-11 17:00,11.8,0.0,5.8,30,63,1017.0,75,dry,partly-cloudy-night,64012,Rottenburg-Kiebingen
de:08416:10501,de:08416:10501:0:4,Tübingen Neckarbrücke,2025-11-11 18:06:54,2025-11-11 18:06:54,4,Tübingen Hauptbahnhof,,tub:09004::H:j25:373,2025-11-11,0.0,48.51863,9.05795,2025-11-11 17:00,11.8,0.0,5.8,30,63,1017.0,75,dry,partly-cloudy-night,64012,Rottenburg-Kiebingen
de:08416:10501,de:08416:10501:0:4,Tübingen Neckarbrücke,2025-11-11 18:08:54,2025-11-11 18:08:54,5,Tübingen Derend. Käppele,,tub:09005::H:j25:643,2025-11-11,0.0,48.51863,9.05795,2025-11-11 17:00,11.8,0.0,5.8,30,63,1017.0,75,dry,partly-cloudy-night,64012,Rottenburg-Kiebingen
de:08416:10501,de:08416:10501:0:3,Tübingen Neckarbrücke,2025-11-11 17:10:24,2025-11-11 17:10:24,2,Tübingen WHO Ulmenweg,,tub:09002::R:j25:48,2025-11-11,0.0,48.51863,9.05795,2025-11-11 17:00,11.8,0.0,5.8,30,63,1017.0,75,dry,partly-cloudy-night,64012,Rottenburg-Kiebingen
de:08416:10501,de:08416:10501:0:3,Tübingen Neckarbrücke,2025-11-11 17:15:24,2025-11-11 17:15:24,13,Tübingen BG Unfallklinik,,tub:09013::R:j25:158,2025-11-11,0.0,48.51863,9.05795,2025-11-11 17:00,11.8,0.0,5.8,30,63,1017.0,75,dry,partly-cloudy-night,64012,Rottenburg-Kiebingen
de:08416:10501,de:08416:10501:0:3,Tübingen Neckarbrücke,2025-11-11 17:15:24,2025-11-11 17:15:24,4,Tübingen WHO Ulmenweg,,tub:09004::R:j25:73,2025-11-11,0.0,48.51863,9.05795,2025-11-11 17:00,11.8,0.0,5.8,30,63,1017.0,75,dry,partly-cloudy-night,64012,Rottenburg-Kiebingen
de:08416:10501,de:08416:10501:0:3,Tübingen Neckarbrücke,2025-11-11 17:17:12,2025-11-11 17:17:12,17,Tübingen Uni-Kliniken Berg,,tub:09017::R:j25:12,2025-11-11,0.0,48.51863,9.05795,2025-11-11 17:00,11.8,0.0,5.8,30,63,1017.0,75,dry,partly-cloudy-night,64012,Rottenburg-Kiebingen
de:08416:10501,de:08416:10501:0:3,Tübingen Neckarbrücke,2025-11-11 17:18:24,2025-11-11 17:18:24,5,Tübingen WHO Ahornweg,,tub:09005::R:j25:110,2025-11-11,0.0,48.51863,9.05795,2025-11-11 17:00,11.8,0.0,5.8,30,63,1017.0,75,dry,partly-cloudy-night,64012,Rottenburg-Kiebingen
de:08416:10501,de:08416:10501:0:3,Tübingen Neckarbrücke,2025-11-11 17:20:24,2025-11-11 17:20:24,3,Tübingen WHO Ulmenweg,,tub:09003::R:j25:161,2025-11-11,0.0,48.51863,9.05795,2025-11-11 17:00,11.8,0.0,5.8,30,63,1017.0,75,dry,partly-cloudy-night,64012,Rottenburg-Kiebingen
de:08416:10501,de:08416:10501:0:3,Tübingen Neckarbrücke,2025-11-11 17:22:24,2025-11-11 17:22:24,6,Tübingen Sand Drosselweg,,tub:09006::R:j25:181,2025-11-11,0.0,48.51863,9.05795,2025-11-11 17:00,11.8,0.0,5.8,30,63,1017.0,75,dry,partly-cloudy-night,64012,Rottenburg-Kiebingen
de:08416:10501,de:08416:10501:0:3,Tübingen Neckarbrücke,2025-11-11 17:23:00,2025-11-11 17:38:00,18,Hagelloch Dornäckerweg,,tub:33018::R:j25:10,2025-11-11,15.0,48.51863,9.05795,2025-11-11 17:00,11.8,0.0,5.8,30,63,1017.0,75,dry,partly-cloudy-night,64012,Rottenburg-Kiebingen
de:08416:10501,de:08416:10501:0:3,Tübingen Neckarbrücke,2025-11-11 17:25:24,2025-11-11 17:25:24,2,Tübingen WHO Ulmenweg,,tub:09002::R:j25:49,2025-11-11,0.0,48.51863,9.05795,2025-11-11 17:00,11.8,0.0,5.8,30,63,1017.0,75,dry,partly-cloudy-night,64012,Rottenburg-Kiebingen
de:08416:10501,de:08416:10501:0:3,Tübingen Neckarbrücke,2025-11-11 17:28:24,2025-11-11 17:28:24,5,Tübingen WHO Ahornweg,,tub:09005::R:j25:112,2025-11-11,0.0,48.51863,9.05795,2025-11-11 17:00,11.8,0.0,5.8,30,63,1017.0,75,dry,partly-cloudy-night,64012,Rottenburg-Kiebingen
de:08416:10501,de:08416:10501:0:3,Tübingen Neckarbrücke,2025-11-11 17:30:24,2025-11-11 17:30:24,4,Tübingen WHO Ulmenweg,,tub:09004::R:j25:74,2025-11-11,0.0,48.51863,9.05795,2025-11-11 17:00,11.8,0.0,5.8,30,63,1017.0,75,dry,partly-cloudy-night,64012,Rottenburg-Kiebingen
de:08416:10501,de:08416:10501:0:3,Tübingen Neckarbrücke,2025-11-11 17:33:00,,19,Tübingen BG Unfallklinik,,rab:24019::R:25a:129,2025-11-11,,48.51863,9.05795,2025-11-11 17:00,11.8,0.0,5.8,30,63,1017.0,75,dry,partly-cloudy-night,64012,Rottenburg-Kiebingen
de:08416:10501,de:08416:10501:0:3,Tübingen Neckarbrücke,2025-11-11 17:35:24,2025-11-11 17:35:24,3,Tübingen WHO Ulmenweg,,tub:09003::R:j25:163,2025-11-11,0.0,48.51863,9.05795,2025-11-11 17:00,11.8,0.0,5.8,30,63,1017.0,75,dry,partly-cloudy-night,64012,Rottenburg-Kiebingen
de:08416:10501,de:08416:10501:0:3,Tübingen Neckarbrücke,2025-11-11 17:38:24,2025-11-11 17:38:24,5,Tübingen WHO Ahornweg,,tub:09005::R:j25:115,2025-11-11,0.0,48.51863,9.05795,2025-11-11 17:00,11.8,0.0,5.8,30,63,1017.0,75,dry,partly-cloudy-night,64012,Rottenburg-Kiebingen
de:08416:10501,de:08416:10501:0:3,Tübingen Neckarbrücke,2025-11-11 17:40:24,2025-11-11 17:40:24,2,Tübingen WHO Ulmenweg,,tub:09002::R:j25:50,2025-11-11,0.0,48.51863,9.05795,2025-11-11 17:00,11.8,0.0,5.8,30,63,1017.0,75,dry,partly-cloudy-night,64012,Rottenburg-Kiebingen
de:08416:10501,de:08416:10501:0:3,Tübingen Neckarbrücke,2025-11-11 17:43:06,2025-11-11 17:43:06,32,Tübingen Ursrainer Ring,,tub:09032::R:j25:28,2025-11-11,0.0,48.51863,9.05795,2025-11-11 17:00,11.8,0.0,5.8,30,63,1017.0,75,dry,partly-cloudy-night,64012,Rottenburg-Kiebingen
de:08416:10501,de:08416:10501:0:3,Tübingen Neckarbrücke,2025-11-11 17:45:24,2025-11-11 17:45:24,13,Tübingen BG Unfallklinik,,tub:09013::R:j25:63,2025-11-11,0.0,48.51863,9.05795,2025-11-11 17:00,11.8,0.0,5.8,30,63,1017.0,75,dry,partly-cloudy-night,64012,Rottenburg-Kiebingen
de:08416:10501,de:08416:10501:0:3,Tübingen Neckarbrücke,2025-11-11 17:45:24,2025-11-11 17:45:24,4,Tübingen WHO Ulmenweg,,tub:09004::R:j25:76,2025-11-11,0.0,48.51863,9.05795,2025-11-11 17:00,11.8,0.0,5.8,30,63,1017.0,75,dry,partly-cloudy-night,64012,Rottenburg-Kiebingen
de:08416:10501,de:08416:10501:0:3,Tübingen Neckarbrücke,2025-11-11 17:48:24,2025-11-11 17:48:24,5,Tübingen WHO Ahornweg,,tub:09005::R:j25:116,2025-11-11,0.0,48.51863,9.05795,2025-11-11 17:00,11.8,0.0,5.8,30,63,1017.0,75,dry,partly-cloudy-night,64012,Rottenburg-Kiebingen
de:08416:10501,de:08416:10501:0:3,Tübingen Neckarbrücke,2025-11-11 17:50:24,2025-11-11 17:50:24,3,Tübingen WHO Ulmenweg,,tub:09003::R:j25:165,2025-11-11,0.0,48.51863,9.05795,2025-11-11 17:00,11.8,0.0,5.8,30,63,1017.0,75,dry,partly-cloudy-night,64012,Rottenburg-Kiebingen
de:08416:10501,de:08416:10501:0:3,Tübingen Neckarbrücke,2025-11-11 17:52:24,2025-11-11 17:52:24,6,Tübingen Sand Drosselweg,,tub:09006::R:j25:182,2025-11-11,0.0,48.51863,9.05795,2025-11-11 17:00,11.8,0.0,5.8,30,63,1017.0,75,dry,partly-cloudy-night,64012,Rottenburg-Kiebingen
de:08416:10501,de:08416:10501:0:3,Tübingen Neckarbrücke,2025-11-11 17:53:00,,18,Hagelloch Dornäckerweg,,tub:33018::R:j25:11,2025-11-11,,48.51863,9.05795,2025-11-11 17:00,11.8,0.0,5.8,30,63,1017.0,75,dry,partly-cloudy-night,64012,Rottenburg-Kiebingen
de:08416:10501,de:08416:10501:0:3,Tübingen Neckarbrücke,2025-11-11 17:55:24,2025-11-11 17:55:24,2,Tübingen WHO Ulmenweg,,tub:09002::R:j25:51,2025-11-11,0.0,48.51863,9.05795,2025-11-11 17:00,11.8,0.0,5.8,30,63,1017.0,75,dry,partly-cloudy-night,64012,Rottenburg-Kiebingen
de:08416:10501,de:08416:10501:0:3,Tübingen Neckarbrücke,2025-11-11 17:58:24,2025-11-11 17:58:24,5,Tübingen WHO Ahornweg,,tub:09005::R:j25:118,2025-11-11,0.0,48.51863,9.05795,2025-11-11 17:00,11.8,0.0,5.8,30,63,1017.0,75,dry,partly-cloudy-night,64012,Rottenburg-Kiebingen
de:08416:10501,de:08416:10501:0:3,Tübingen Neckarbrücke,2025-11-11 18:00:24,2025-11-11 18:00:24,4,Tübingen WHO Ulmenweg,,tub:09004::R:j25:77,2025-11-11,0.0,48.51863,9.05795,2025-11-11 17:00,11.8,0.0,5.8,30,63,1017.0,75,dry,partly-cloudy-night,64012,Rottenburg-Kiebingen
de:08416:10501,de:08416:10501:0:3,Tübingen Neckarbrücke,2025-11-11 18:03:00,,19,Tübingen BG Unfallklinik,,rab:24019::R:25a:130,2025-11-11,,48.51863,9.05795,2025-11-11 17:00,11.8,0.0,5.8,30,63,1017.0,75,dry,partly-cloudy-night,64012,Rottenburg-Kiebingen
de:08416:10501,de:08416:10501:0:3,Tübingen Neckarbrücke,2025-11-11 18:05:24,2025-11-11 18:05:24,3,Tübingen WHO Ulmenweg,,tub:09003::R:j25:167,2025-11-11,0.0,48.51863,9.05795,2025-11-11 17:00,11.8,0.0,5.8,30,63,1017.0,75,dry,partly-cloudy-night,64012,Rottenburg-Kiebingen
de:08416:10501,de:08416:10501:0:3,Tübingen Neckarbrücke,2025-11-11 18:08:24,2025-11-11 18:08:24,5,Tübingen WHO Ahornweg,,tub:09005::R:j25:120,2025-11-11,0.0,48.51863,9.05795,2025-11-11 17:00,11.8,0.0,5.8,30,63,1017.0,75,dry,partly-cloudy-night,64012,Rottenburg-Kiebingen
de:08416:10501,de:08416:10501:0:2,Tübingen Neckarbrücke,2025-11-11 17:10:24,2025-11-11 17:10:24,1,Tübingen Stauden,,tub:09001::R:j25:667,2025-11-11,0.0,48.51863,9.05795,2025-11-11 17:00,11.8,0.0,5.8,30,63,1017.0,75,dry,partly-cloudy-night,64012,Rottenburg-Kiebingen
de:08416:10501,de:08416:10501:0:2,Tübingen Neckarbrücke,2025-11-11 17:12:00,2025-11-11 17:12:00,8,Hagelloch Dornäckerweg,,tub:09008::R:j25:314,2025-11-11,0.0,48.51863,9.05795,2025-11-11 17:00,11.8,0.0,5.8,30,63,1017.0,75,dry,partly-cloudy-night,64012,Rottenburg-Kiebingen
de:08416:10501,de:08416:10501:0:2,Tübingen Neckarbrücke,2025-11-11 17:14:12,,21,Tübingen Egeriaplatz,,tub:09021::H:j25:134,2025-11-11,,48.51863,9.05795,2025-11-11 17:00,11.8,0.0,5.8,30,63,1017.0,75,dry,partly-cloudy-night,64012,Rottenburg-Kiebingen
de:08416:10501,de:08416:10501:0:2,Tübingen Neckarbrücke,2025-11-11 17:17:24,2025-11-11 17:17:24,7,Pfrondorf Lindenstraße,,tub:09007::R:j25:162,2025-11-11,0.0,48.51863,9.05795,2025-11-11 17:00,11.8,0.0,5.8,30,63,1017.0,75,dry,partly-cloudy-night,64012,Rottenburg-Kiebingen
de:08416:10501,de:08416:10501:0:2,Tübingen Neckarbrücke,2025-11-11 17:19:42,,11,Tübingen Schwärzlocher Str. 45,,tub:09011::R:j25:23,2025-11-11,,48.51863,9.05795,2025-11-11 17:00,11.8,0.0,5.8,30,63,1017.0,75,dry,partly-cloudy-night,64012,Rottenburg-Kiebingen
de:08416:10501,de:08416:10501:0:2,Tübingen Neckarbrücke,2025-11-11 17:25:24,,1,Tübingen Stauden,,tub:09001::R:j25:669,2025-11-11,,48.51863,9.05795,2025-11-11 17:00,11.8,0.0,5.8,30,63,1017.0,75,dry,partly-cloudy-night,64012,Rottenburg-Kiebingen
de:08416:10501,de:08416:10501:0:2,Tübingen Neckarbrücke,2025-11-11 17:27:00,2025-11-11 17:27:00,16,Tübingen Hagellocher Weg,,tub:09016::H:j25:141,2025-11-11,0.0,48.51863,9.05795,2025-11-11 17:00,11.8,0.0,5.8,30,63,1017.0,75,dry,partly-cloudy-night,64012,Rottenburg-Kiebingen
de:08416:10501,de:08416:10501:0:2,Tübingen Neckarbrücke,2025-11-11 17:29:12,2025-11-11 17:29:12,22,Tübingen Carlo-Steeb-Str.,,tub:09022::H:j25:136,2025-11-11,0.0,48.51863,9.05795,2025-11-11 17:00,11.8,0.0,5.8,30,63,1017.0,75,dry,partly-cloudy-night,64012,Rottenburg-Kiebingen
de:08416:10501,de:08416:10501:0:2,Tübingen Neckarbrücke,2025-11-11 17:32:24,2025-11-11 17:32:24,7,Pfrondorf Lindenstraße,,tub:09007::R:j25:163,2025-11-11,0.0,48.51863,9.05795,2025-11-11 17:00,11.8,0.0,5.8,30,63,1017.0,75,dry,partly-cloudy-night,64012,Rottenburg-Kiebingen
de:08416:10501,de:08416:10501:0:2,Tübingen Neckarbrücke,2025-11-11 17:34:42,2025-11-11 17:34:42,12,Tübingen Weststadt,,tub:09012::R:j25:48,2025-11-11,0.0,48.51863,9.05795,2025-11-11 17:00,11.8,0.0,5.8,30,63,1017.0,75,dry,partly-cloudy-night,64012,Rottenburg-Kiebingen
de:08416:10501,de:08416:10501:0:2,Tübingen Neckarbrücke,2025-11-11 17:36:06,,10,Tübingen Schwabstraße,,tub:09010::R:j25:138,2025-11-11,,48.51863,9.05795,2025-11-11 17:00,11.8,0.0,5.8,30,63,1017.0,75,dry,partly-cloudy-night,64012,Rottenburg-Kiebingen
de:08416:10501,de:08416:10501:0:2,Tübingen Neckarbrücke,2025-11-11 17:40:24,2025-11-11 17:40:24,1,Tübingen Stauden,,tub:09001::R:j25:671,2025-11-11,0.0,48.51863,9.05795,2025-11-11 17:00,11.8,0.0,5.8,30,63,1017.0,75,dry,partly-cloudy-night,64012,Rottenburg-Kiebingen
de:08416:10501,de:08416:10501:0:2,Tübingen Neckarbrücke,2025-11-11 17:42:00,2025-11-11 17:42:00,8,Hagelloch Dornäckerweg,,tub:09008::R:j25:315,2025-11-11,0.0,48.51863,9.05795,2025-11-11 17:00,11.8,0.0,5.8,30,63,1017.0,75,dry,partly-cloudy-night,64012,Rottenburg-Kiebingen
de:08416:10501,de:08416:10501:0:2,Tübingen Neckarbrücke,2025-11-11 17:44:12,2025-11-11 17:44:12,21,Tübingen Egeriaplatz,,tub:09021::H:j25:136,2025-11-11,0.0,48.51863,9.05795,2025-11-11 17:00,11.8,0.0,5.8,30,63,1017.0,75,dry,partly-cloudy-night,64012,Rottenburg-Kiebingen
de:08416:10501,de:08416:10501:0:2,Tübingen Neckarbrücke,2025-11-11 17:47:24,2025-11-11 17:47:24,7,Pfrondorf Lindenstraße,,tub:09007::R:j25:164,2025-11-11,0.0,48.51863,9.05795,2025-11-11 17:00,11.8,0.0,5.8,30,63,1017.0,75,dry,partly-cloudy-night,64012,Rottenburg-Kiebingen
de:08416:10501,de:08416:10501:0:2,Tübingen Neckarbrücke,2025-11-11 17:49:42,2025-11-11 17:49:42,9,Tübingen Bismarckturm,,tub:09009::R:j25:13,2025-11-11,0.0,48.51863,9.05795,2025-11-11 17:00,11.8,0.0,5.8,30,63,1017.0,75,dry,partly-cloudy-night,64012,Rottenburg-Kiebingen
de:08416:10501,de:08416:10501:0:2,Tübingen Neckarbrücke,2025-11-11 17:55:24,2025-11-11 17:55:24,1,Tübingen Stauden,,tub:09001::R:j25:673,2025-11-11,0.0,48.51863,9.05795,2025-11-11 17:00,11.8,0.0,5.8,30,63,1017.0,75,dry,partly-cloudy-night,64012,Rottenburg-Kiebingen
de:08416:10501,de:08416:10501:0:2,Tübingen Neckarbrücke,2025-11-11 17:57:00,2025-11-11 17:57:00,16,Hagellocher Weg,,tub:09016::H:j25:65534,2025-11-11,0.0,48.51863,9.05795,2025-11-11 17:00,11.8,0.0,5.8,30,63,1017.0,75,dry,partly-cloudy-night,64012,Rottenburg-Kiebingen
de:08416:10501,de:08416:10501:0:2,Tübingen Neckarbrücke,2025-11-11 17:57:00,2025-11-11 17:57:00,16,Tübingen Hagellocher Weg,,tub:09016::H:j25:143,2025-11-11,0.0,48.51863,9.05795,2025-11-11 17:00,11.8,0.0,5.8,30,63,1017.0,75,dry,partly-cloudy-night,64012,Rottenburg-Kiebingen
de:08416:10501,de:08416:10501:0:2,Tübingen Neckarbrücke,2025-11-11 17:59:12,,22,Tübingen Carlo-Steeb-Str.,,tub:09022::H:j25:137,2025-11-11,,48.51863,9.05795,2025-11-11 17:00,11.8,0.0,5.8,30,63,1017.0,75,dry,partly-cloudy-night,64012,Rottenburg-Kiebingen
de:08416:10501,de:08416:10501:0:2,Tübingen Neckarbrücke,2025-11-11 18:02:24,2025-11-11 18:02:24,7,Pfrondorf Lindenstraße,,tub:09007::R:j25:165,2025-11-11,0.0,48.51863,9.05795,2025-11-11 17:00,11.8,0.0,5.8,30,63,1017.0,75,dry,partly-cloudy-night,64012,Rottenburg-Kiebingen
de:08416:10501,de:08416:10501:0:2,Tübingen Neckarbrücke,2025-11-11 18:04:42,2025-11-11 18:04:42,12,Tübingen Weststadt,,tub:09012::R:j25:50,2025-11-11,0.0,48.51863,9.05795,2025-11-11 17:00,11.8,0.0,5.8,30,63,1017.0,75,dry,partly-cloudy-night,64012,Rottenburg-Kiebingen
de:08416:10501,de:08416:10501:0:2,Tübingen Neckarbrücke,2025-11-11 18:06:06,2025-11-11 18:06:06,10,Tübingen Schwabstraße,,tub:09010::R:j25:139,2025-11-11,0.0,48.51863,9.05795,2025-11-11 17:00,11.8,0.0,5.8,30,63,1017.0,75,dry,partly-cloudy-night,64012,Rottenburg-Kiebingen
de:08416:10499,de:08416:10499:0:4,Tübingen Mühlstraße,2025-11-11 17:25:30,,22,Tübingen Hauptbahnhof,,tub:09022::R:j25:25,2025-11-11,,48.51948,9.05861,2025-11-11 17:00,11.8,0.0,5.8,30,63,1017.0,75,dry,partly-cloudy-night,64012,Rottenburg-Kiebingen
de:08416:10499,de:08416:10499:0:4,Tübingen Mühlstraße,2025-11-11 17:55:30,2025-11-11 17:55:30,22,Tübingen Hauptbahnhof,,tub:09022::R:j25:26,2025-11-11,0.0,48.51948,9.05861,2025-11-11 17:00,11.8,0.0,5.8,30,63,1017.0,75,dry,partly-cloudy-night,64012,Rottenburg-Kiebingen
de:08416:10046,de:08416:10046:0:1,Tübingen Ernst-Bloch-Straße,2025-11-11 17:36:06,2025-11-11 17:36:06,6,Tübingen Hirschauer Straße,,tub:09006::H:j25:212,2025-11-11,0.0,48.51521,9.04207,2025-11-11 17:00,11.8,0.0,5.8,30,63,1017.0,75,dry,partly-cloudy-night,64012,Rottenburg-Kiebingen
de:08416:10046,de:08416:10046:0:1,Tübingen Ernst-Bloch-Straße,2025-11-11 18:06:06,2025-11-11 18:06:06,6,Tübingen Hirschauer Straße,,tub:09006::H:j25:213,2025-11-11,0.0,48.51521,9.04207,2025-11-11 17:00,11.8,0.0,5.8,30,63,1017.0,75,dry,partly-cloudy-night,64012,Rottenburg-Kiebingen
de:08416:10046,de:08416:10046:0:4,Tübingen Ernst-Bloch-Straße,2025-11-11 17:39:30,2025-11-11 17:39:30,6,Tübingen Hauptbahnhof,,tub:09006::R:j25:24,2025-11-11,0.0,48.51521,9.04207,2025-11-11 17:00,11.8,0.0,5.8,30,63,1017.0,75,dry,partly-cloudy-night,64012,Rottenburg-Kiebingen
de:08416:10046,de:08416:10046:0:4,Tübingen Ernst-Bloch-Straße,2025-11-11 18:09:30,2025-11-11 18:09:30,6,Tübingen Hauptbahnhof,,tub:09006::R:j25:25,2025-11-11,0.0,48.51521,9.04207,2025-11-11 17:00,11.8,0.0,5.8,30,63,1017.0,75,dry,partly-cloudy-night,64012,Rottenburg-Kiebingen
de:08416:10017,de:08416:10017:0:4,Tübingen Weberstraße,2025-11-11 17:36:00,2025-11-11 17:36:00,11,Tübingen Schwärzlocher Str. 45,,tub:09011::R:j25:23,2025-11-11,0.0,48.52216,9.04846,2025-11-11 17:00,11.8,0.0,5.8,30,63,1017.0,75,dry,partly-cloudy-night,64012,Rottenburg-Kiebingen
de:08416:10017,de:08416:10017:0:4,Tübingen Weberstraße,2025-11-11 17:36:00,,11,Tübingen Hauptbahnhof,,tub:09011::H:j25:131,2025-11-11,,48.52216,9.04846,2025-11-11 17:00,11.8,0.0,5.8,30,63,1017.0,75,dry,partly-cloudy-night,64012,Rottenburg-Kiebingen
de:08416:10017,de:08416:10017:0:4,Tübingen Weberstraße,2025-11-11 18:10:06,2025-11-11 18:10:06,9,Tübingen Hauptbahnhof,,tub:09009::H:j25:68,2025-11-11,0.0,48.52216,9.04846,2025-11-11 17:00,11.8,0.0,5.8,30,63,1017.0,75,dry,partly-cloudy-night,64012,Rottenburg-Kiebingen
de:08416:10017,de:08416:10017:0:1,Tübingen Weberstraße,2025-11-11 17:55:54,2025-11-11 17:55:54,9,Tübingen Bismarckturm,,tub:09009::R:j25:13,2025-11-11,0.0,48.52216,9.04846,2025-11-11 17:00,11.8,0.0,5.8,30,63,1017.0,75,dry,partly-cloudy-night,64012,Rottenburg-Kiebingen
de:08416:10518,de:08416:10518:0:4,Tübingen Poststraße,2025-11-11 17:10:36,2025-11-11 17:10:36,13,Tübingen BG Unfallklinik,,tub:09013::R:j25:158,2025-11-11,0.0,48.51696,9.05935,2025-11-11 17:00,11.8,0.0,5.8,30,63,1017.0,75,dry,partly-cloudy-night,64012,Rottenburg-Kiebingen
de:08416:10518,de:08416:10518:0:4,Tübingen Poststraße,2025-11-11 17:11:00,2025-11-11 17:14:30,X11,Tübingen Hauptbahnhof,,tub:34X11::R:j25:16,2025-11-11,3.5,48.51696,9.05935,2025-11-11 17:00,11.8,0.0,5.8,30,63,1017.0,75,dry,partly-cloudy-night,64012,Rottenburg-Kiebingen
de:08416:10518,de:08416:10518:0:4,Tübingen Poststraße,2025-11-11 17:12:36,2025-11-11 17:12:36,5,Tübingen WHO Ahornweg,,tub:09005::R:j25:110,2025-11-11,0.0,48.51696,9.05935,2025-11-11 17:00,11.8,0.0,5.8,30,63,1017.0,75,dry,partly-cloudy-night,64012,Rottenburg-Kiebingen
de:08416:10518,de:08416:10518:0:4,Tübingen Poststraße,2025-11-11 17:19:00,2025-11-11 17:21:36,7625,Tübingen Hauptbahnhof,,tub:80625::R:j25:44,2025-11-11,2.6,48.51696,9.05935,2025-11-11 17:00,11.8,0.0,5.8,30,63,1017.0,75,dry,partly-cloudy-night,64012,Rottenburg-Kiebingen
de:08416:10518,de:08416:10518:0:4,Tübingen Poststraße,2025-11-11 17:19:00,,7611,Tübingen Hauptbahnhof,,tub:34611::R:j25:44,2025-11-11,,48.51696,9.05935,2025-11-11 17:00,11.8,0.0,5.8,30,63,1017.0,75,dry,partly-cloudy-night,64012,Rottenburg-Kiebingen
de:08416:10518,de:08416:10518:0:4,Tübingen Poststraße,2025-11-11 17:21:36,2025-11-11 17:21:36,16,Tübingen Hagellocher Weg,,tub:09016::H:j25:141,2025-11-11,0.0,48.51696,9.05935,2025-11-11 17:00,11.8,0.0,5.8,30,63,1017.0,75,dry,partly-cloudy-night,64012,Rottenburg-Kiebingen
de:08416:10518,de:08416:10518:0:4,Tübingen Poststraße,2025-11-11 17:22:36,2025-11-11 17:22:36,4,Tübingen WHO Ulmenweg,,tub:09004::R:j25:74,2025-11-11,0.0,48.51696,9.05935,2025-11-11 17:00,11.8,0.0,5.8,30,63,1017.0,75,dry,partly-cloudy-night,64012,Rottenburg-Kiebingen
de:08416:10518,de:08416:10518:0:4,Tübingen Poststraße,2025-11-11 17:30:24,2025-11-11 17:30:24,3,Tübingen WHO Ulmenweg,,tub:09003::R:j25:163,2025-11-11,0.0,48.51696,9.05935,2025-11-11 17:00,11.8,0.0,5.8,30,63,1017.0,75,dry,partly-cloudy-night,64012,Rottenburg-Kiebingen
de:08416:10518,de:08416:10518:0:4,Tübingen Poststraße,2025-11-11 17:32:36,2025-11-11 17:32:36,1,Tübingen Stauden,,tub:09001::R:j25:671,2025-11-11,0.0,48.51696,9.05935,2025-11-11 17:00,11.8,0.0,5.8,30,63,1017.0,75,dry,partly-cloudy-night,64012,Rottenburg-Kiebingen
de:08416:10518,de:08416:10518:0:4,Tübingen Poststraße,2025-11-11 17:36:00,2025-11-11 17:36:00,7625,Tübingen Hauptbahnhof,,tub:80625::R:j25:60,2025-11-11,0.0,48.51696,9.05935,2025-11-11 17:00,11.8,0.0,5.8,30,63,1017.0,75,dry,partly-cloudy-night,64012,Rottenburg-Kiebingen
de:08416:10518,de:08416:10518:0:4,Tübingen Poststraße,2025-11-11 17:37:36,2025-11-11 17:37:36,34,Tübingen Hauptbahnhof,,tub:09034::H:j25:51,2025-11-11,0.0,48.51696,9.05935,2025-11-11 17:00,11.8,0.0,5.8,30,63,1017.0,75,dry,partly-cloudy-night,64012,Rottenburg-Kiebingen
de:08416:10518,de:08416:10518:0:4,Tübingen Poststraße,2025-11-11 17:38:30,2025-11-11 17:38:30,21,Tübingen Egeriaplatz,,tub:09021::H:j25:136,2025-11-11,0.0,48.51696,9.05935,2025-11-11 17:00,11.8,0.0,5.8,30,63,1017.0,75,dry,partly-cloudy-night,64012,Rottenburg-Kiebingen
de:08416:10518,de:08416:10518:0:4,Tübingen Poststraße,2025-11-11 17:38:36,2025-11-11 17:38:36,35,Tübingen Hauptbahnhof,,tub:09035::H:j25:26,2025-11-11,0.0,48.51696,9.05935,2025-11-11 17:00,11.8,0.0,5.8,30,63,1017.0,75,dry,partly-cloudy-night,64012,Rottenburg-Kiebingen
de:08416:10518,de:08416:10518:0:4,Tübingen Poststraße,2025-11-11 17:40:36,2025-11-11 17:40:36,13,Tübingen BG Unfallklinik,,tub:09013::R:j25:63,2025-11-11,0.0,48.51696,9.05935,2025-11-11 17:00,11.8,0.0,5.8,30,63,1017.0,75,dry,partly-cloudy-night,64012,Rottenburg-Kiebingen
de:08416:10518,de:08416:10518:0:4,Tübingen Poststraße,2025-11-11 17:41:00,2025-11-11 17:45:48,X11,Tübingen Hauptbahnhof,,tub:34X11::R:j25:17,2025-11-11,4.8,48.51696,9.05935,2025-11-11 17:00,11.8,0.0,5.8,30,63,1017.0,75,dry,partly-cloudy-night,64012,Rottenburg-Kiebingen
de:08416:10518,de:08416:10518:0:4,Tübingen Poststraße,2025-11-11 17:42:36,2025-11-11 17:42:36,5,Tübingen WHO Ahornweg,,tub:09005::R:j25:116,2025-11-11,0.0,48.51696,9.05935,2025-11-11 17:00,11.8,0.0,5.8,30,63,1017.0,75,dry,partly-cloudy-night,64012,Rottenburg-Kiebingen
de:08416:10518,de:08416:10518:0:4,Tübingen Poststraße,2025-11-11 17:49:00,2025-11-11 17:49:00,7625,Tübingen Hauptbahnhof,,tub:80625::R:j25:21,2025-11-11,0.0,48.51696,9.05935,2025-11-11 17:00,11.8,0.0,5.8,30,63,1017.0,75,dry,partly-cloudy-night,64012,Rottenburg-Kiebingen
de:08416:10518,de:08416:10518:0:4,Tübingen Poststraße,2025-11-11 17:51:36,2025-11-11 17:51:36,16,Tübingen Hagellocher Weg,,tub:09016::H:j25:143,2025-11-11,0.0,48.51696,9.05935,2025-11-11 17:00,11.8,0.0,5.8,30,63,1017.0,75,dry,partly-cloudy-night,64012,Rottenburg-Kiebingen
de:08416:10518,de:08416:10518:0:4,Tübingen Poststraße,2025-11-11 17:51:36,2025-11-11 17:51:36,16,Hagellocher Weg,,tub:09016::H:j25:65534,2025-11-11,0.0,48.51696,9.05935,2025-11-11 17:00,11.8,0.0,5.8,30,63,1017.0,75,dry,partly-cloudy-night,64012,Rottenburg-Kiebingen
de:08416:10518,de:08416:10518:0:4,Tübingen Poststraße,2025-11-11 17:52:36,2025-11-11 17:52:36,4,Tübingen WHO Ulmenweg,,tub:09004::R:j25:77,2025-11-11,0.0,48.51696,9.05935,2025-11-11 17:00,11.8,0.0,5.8,30,63,1017.0,75,dry,partly-cloudy-night,64012,Rottenburg-Kiebingen
de:08416:10518,de:08416:10518:0:4,Tübingen Poststraße,2025-11-11 17:55:00,,7611,Tübingen Hauptbahnhof,,tub:34611::R:j25:25,2025-11-11,,48.51696,9.05935,2025-11-11 17:00,11.8,0.0,5.8,30,63,1017.0,75,dry,partly-cloudy-night,64012,Rottenburg-Kiebingen
de:08416:10518,de:08416:10518:0:4,Tübingen Poststraße,2025-11-11 18:00:24,2025-11-11 18:00:24,3,Tübingen WHO Ulmenweg,,tub:09003::R:j25:167,2025-11-11,0.0,48.51696,9.05935,2025-11-11 17:00,11.8,0.0,5.8,30,63,1017.0,75,dry,partly-cloudy-night,64012,Rottenburg-Kiebingen
de:08416:10518,de:08416:10518:0:4,Tübingen Poststraße,2025-11-11 18:02:36,2025-11-11 18:02:36,1,Tübingen Stauden,,tub:09001::R:j25:675,2025-11-11,0.0,48.51696,9.05935,2025-11-11 17:00,11.8,0.0,5.8,30,63,1017.0,75,dry,partly-cloudy-night,64012,Rottenburg-Kiebingen
de:08416:10518,de:08416:10518:0:4,Tübingen Poststraße,2025-11-11 18:06:00,2025-11-11 18:06:00,7625,Tübingen Hauptbahnhof,,tub:80625::R:j25:61,2025-11-11,0.0,48.51696,9.05935,2025-11-11 17:00,11.8,0.0,5.8,30,63,1017.0,75,dry,partly-cloudy-night,64012,Rottenburg-Kiebingen
de:08416:10518,de:08416:10518:0:4,Tübingen Poststraße,2025-11-11 18:07:36,,34,Tübingen Hauptbahnhof,,tub:09034::H:j25:52,2025-11-11,,48.51696,9.05935,2025-11-11 17:00,11.8,0.0,5.8,30,63,1017.0,75,dry,partly-cloudy-night,64012,Rottenburg-Kiebingen
de:08416:10518,de:08416:10518:0:4,Tübingen Poststraße,2025-11-11 18:07:36,2025-11-11 18:07:36,34,Hauptbahnhof,,tub:09034::H:j25:65534,2025-11-11,0.0,48.51696,9.05935,2025-11-11 17:00,11.8,0.0,5.8,30,63,1017.0,75,dry,partly-cloudy-night,64012,Rottenburg-Kiebingen
de:08416:10518,de:08416:10518:0:4,Tübingen Poststraße,2025-11-11 18:08:30,,21,Tübingen Egeriaplatz,,tub:09021::H:j25:138,2025-11-11,,48.51696,9.05935,2025-11-11 17:00,11.8,0.0,5.8,30,63,1017.0,75,dry,partly-cloudy-night,64012,Rottenburg-Kiebingen
de:08416:10052,de:08416:10052:0:4,Tübingen Schwärzlocher Str. 45,2025-11-11 17:34:00,2025-11-11 17:34:00,11,Tübingen Schwärzlocher Str. 45,,tub:09011::R:j25:23,2025-11-11,0.0,48.51931,9.04412,2025-11-11 17:00,11.8,0.0,5.8,30,63,1017.0,75,dry,partly-cloudy-night,64012,Rottenburg-Kiebingen
de:08416:10052,de:08416:10052:0:4,Tübingen Schwärzlocher Str. 45,2025-11-11 17:34:00,,11,Tübingen Hauptbahnhof,,tub:09011::H:j25:131,2025-11-11,,48.51931,9.04412,2025-11-11 17:00,11.8,0.0,5.8,30,63,1017.0,75,dry,partly-cloudy-night,64012,Rottenburg-Kiebingen
de:08416:10018,de:08416:10018:0:1,Tübingen Kelternplatz,2025-11-11 17:25:00,,11,Tübingen Schwärzlocher Str. 45,,tub:09011::R:j25:23,2025-11-11,,48.52285,9.05075,2025-11-11 17:00,11.8,0.0,5.8,30,63,1017.0,75,dry,partly-cloudy-night,64012,Rottenburg-Kiebingen
de:08416:10018,de:08416:10018:0:1,Tübingen Kelternplatz,2025-11-11 17:40:00,2025-11-11 17:40:00,12,Tübingen Weststadt,,tub:09012::R:j25:48,2025-11-11,0.0,48.52285,9.05075,2025-11-11 17:00,11.8,0.0,5.8,30,63,1017.0,75,dry,partly-cloudy-night,64012,Rottenburg-Kiebingen
de:08416:10018,de:08416:10018:0:1,Tübingen Kelternplatz,2025-11-11 17:55:00,2025-11-11 17:55:00,9,Tübingen Bismarckturm,,tub:09009::R:j25:13,2025-11-11,0.0,48.52285,9.05075,2025-11-11 17:00,11.8,0.0,5.8,30,63,1017.0,75,dry,partly-cloudy-night,64012,Rottenburg-Kiebingen
de:08416:10018,de:08416:10018:0:1,Tübingen Kelternplatz,2025-11-11 18:10:00,2025-11-11 18:10:00,12,Tübingen Weststadt,,tub:09012::R:j25:50,2025-11-11,0.0,48.52285,9.05075,2025-11-11 17:00,11.8,0.0,5.8,30,63,1017.0,75,dry,partly-cloudy-night,64012,Rottenburg-Kiebingen
de:08416:10039,de:08416:10039:0:1,Tübingen Hermann Hepper Halle,2025-11-11 17:11:42,2025-11-11 17:11:42,12,Tübingen Weststadt,,tub:09012::R:j25:46,2025-11-11,0.0,48.52232,9.04641,2025-11-11 17:00,11.8,0.0,5.8,30,63,1017.0,75,dry,partly-cloudy-night,64012,Rottenburg-Kiebingen
de:08416:10039,de:08416:10039:0:1,Tübingen Hermann Hepper Halle,2025-11-11 17:26:42,2025-11-11 17:26:42,11,Tübingen Schwärzlocher Str. 45,,tub:09011::R:j25:23,2025-11-11,0.0,48.52232,9.04641,2025-11-11 17:00,11.8,0.0,5.8,30,63,1017.0,75,dry,partly-cloudy-night,64012,Rottenburg-Kiebingen
de:08416:10039,de:08416:10039:0:1,Tübingen Hermann Hepper Halle,2025-11-11 17:41:42,2025-11-11 17:41:42,12,Tübingen Weststadt,,tub:09012::R:j25:48,2025-11-11,0.0,48.52232,9.04641,2025-11-11 17:00,11.8,0.0,5.8,30,63,1017.0,75,dry,partly-cloudy-night,64012,Rottenburg-Kiebingen
de:08416:10039,de:08416:10039:0:4,Tübingen Hermann Hepper Halle,2025-11-11 17:24:30,2025-11-11 17:24:30,12,Tübingen Hauptbahnhof,,tub:09012::H:j25:148,2025-11-11,0.0,48.52232,9.04641,2025-11-11 17:00,11.8,0.0,5.8,30,63,1017.0,75,dry,partly-cloudy-night,64012,Rottenburg-Kiebingen
de:08416:10039,de:08416:10039:0:4,Tübingen Hermann Hepper Halle,2025-11-11 17:54:30,2025-11-11 17:54:30,12,Tübingen Hauptbahnhof,,tub:09012::H:j25:150,2025-11-11,0.0,48.52232,9.04641,2025-11-11 17:00,11.8,0.0,5.8,30,63,1017.0,75,dry,partly-cloudy-night,64012,Rottenburg-Kiebingen
de:08416:10700,de:08416:10700:0:4,Tübingen Hegelstraße,2025-11-11 17:18:30,2025-11-11 17:18:30,16,Tübingen Hagellocher Weg,,tub:09016::H:j25:141,2025-11-11,0.0,48.51346,9.05136,2025-11-11 17:00,11.8,0.0,5.8,30,63,1017.0,75,dry,partly-cloudy-night,64012,Rottenburg-Kiebingen
de:08416:10700,de:08416:10700:0:4,Tübingen Hegelstraße,2025-11-11 17:27:00,2025-11-11 17:33:24,7613,Tübingen Hauptbahnhof,,tub:80613::H:j25:28,2025-11-11,6.4,48.51346,9.05136,2025-11-11 17:00,11.8,0.0,5.8,30,63,1017.0,75,dry,partly-cloudy-night,64012,Rottenburg-Kiebingen
de:08416:10700,de:08416:10700:0:4,Tübingen Hegelstraße,2025-11-11 17:48:30,2025-11-11 17:48:30,16,Hagellocher Weg,,tub:09016::H:j25:65534,2025-11-11,0.0,48.51346,9.05136,2025-11-11 17:00,11.8,0.0,5.8,30,63,1017.0,75,dry,partly-cloudy-night,64012,Rottenburg-Kiebingen
de:08416:10700,de:08416:10700:0:4,Tübingen Hegelstraße,2025-11-11 17:48:30,2025-11-11 17:48:30,16,Tübingen Hagellocher Weg,,tub:09016::H:j25:143,2025-11-11,0.0,48.51346,9.05136,2025-11-11 17:00,11.8,0.0,5.8,30,63,1017.0,75,dry,partly-cloudy-night,64012,Rottenburg-Kiebingen
de:08416:10700,de:08416:10700:0:1,Tübingen Hegelstraße,2025-11-11 17:30:12,2025-11-11 17:30:12,16,Steinlachwasen,,tub:09016::R:j25:65534,2025-11-11,0.0,48.51346,9.05136,2025-11-11 17:00,11.8,0.0,5.8,30,63,1017.0,75,dry,partly-cloudy-night,64012,Rottenburg-Kiebingen
de:08416:10700,de:08416:10700:0:1,Tübingen Hegelstraße,2025-11-11 17:30:12,2025-11-11 17:30:12,16,Tübingen Horn-Straße,,tub:09016::R:j25:51,2025-11-11,0.0,48.51346,9.05136,2025-11-11 17:00,11.8,0.0,5.8,30,63,1017.0,75,dry,partly-cloudy-night,64012,Rottenburg-Kiebingen
de:08416:10700,de:08416:10700:0:1,Tübingen Hegelstraße,2025-11-11 17:37:30,2025-11-11 17:37:30,2,Tübingen Mühlbachäcker,,tub:09002::H:j25:468,2025-11-11,0.0,48.51346,9.05136,2025-11-11 17:00,11.8,0.0,5.8,30,63,1017.0,75,dry,partly-cloudy-night,64012,Rottenburg-Kiebingen
de:08416:10700,de:08416:10700:0:1,Tübingen Hegelstraße,2025-11-11 17:57:00,2025-11-11 17:57:00,7613,Mössingen Melanchthonstr.,,tub:80613::R:j25:4,2025-11-11,0.0,48.51346,9.05136,2025-11-11 17:00,11.8,0.0,5.8,30,63,1017.0,75,dry,partly-cloudy-night,64012,Rottenburg-Kiebingen
de:08416:10700,de:08416:10700:0:1,Tübingen Hegelstraße,2025-11-11 18:00:12,,16,Tübingen Horn-Straße,,tub:09016::R:j25:53,2025-11-11,,48.51346,9.05136,2025-11-11 17:00,11.8,0.0,5.8,30,63,1017.0,75,dry,partly-cloudy-night,64012,Rottenburg-Kiebingen
de:08416:10700,de:08416:10700:0:1,Tübingen Hegelstraße,2025-11-11 18:07:30,2025-11-11 18:07:30,2,Tübingen Mühlbachäcker,,tub:09002::H:j25:469,2025-11-11,0.0,48.51346,9.05136,2025-11-11 17:00,11.8,0.0,5.8,30,63,1017.0,75,dry,partly-cloudy-night,64012,Rottenburg-Kiebingen
de:08416:10904,de:08416:10904:0:1,Tübingen Freibad,2025-11-11 17:10:00,2025-11-11 17:20:00,18,Oberndorf Feuersee,,tub:33018::H:j25:125,2025-11-11,10.0,48.51051,9.04342,2025-11-11 17:00,11.8,0.0,5.8,30,63,1017.0,75,dry,partly-cloudy-night,64012,Rottenburg-Kiebingen
de:08416:10904,de:08416:10904:0:1,Tübingen Freibad,2025-11-11 17:14:00,,19,Rottenburg Bahnhof,,rab:24019::H:25a:200,2025-11-11,,48.51051,9.04342,2025-11-11 17:00,11.8,0.0,5.8,30,63,1017.0,75,dry,partly-cloudy-night,64012,Rottenburg-Kiebingen
de:08416:10904,de:08416:10904:0:1,Tübingen Freibad,2025-11-11 17:25:00,2025-11-11 17:34:18,18,Rottenburg E.-Bolz-Platz,,tub:33018::H:j25:208,2025-11-11,9.3,48.51051,9.04342,2025-11-11 17:00,11.8,0.0,5.8,30,63,1017.0,75,dry,partly-cloudy-night,64012,Rottenburg-Kiebingen
de:08416:10904,de:08416:10904:0:1,Tübingen Freibad,2025-11-11 17:29:00,,19,Bühl Römerstraße,,rab:24019::H:25a:231,2025-11-11,,48.51051,9.04342,2025-11-11 17:00,11.8,0.0,5.8,30,63,1017.0,75,dry,partly-cloudy-night,64012,Rottenburg-Kiebingen
de:08416:10904,de:08416:10904:0:1,Tübingen Freibad,2025-11-11 17:40:00,2025-11-11 17:51:18,18,Poltringen Ammerbrücke,,tub:33018::H:j25:141,2025-11-11,11.3,48.51051,9.04342,2025-11-11 17:00,11.8,0.0,5.8,30,63,1017.0,75,dry,partly-cloudy-night,64012,Rottenburg-Kiebingen
de:08416:10904,de:08416:10904:0:1,Tübingen Freibad,2025-11-11 17:44:00,,19,Bühl Römerstraße,,rab:24019::H:25a:145,2025-11-11,,48.51051,9.04342,2025-11-11 17:00,11.8,0.0,5.8,30,63,1017.0,75,dry,partly-cloudy-night,64012,Rottenburg-Kiebingen
de:08416:10904,de:08416:10904:0:1,Tübingen Freibad,2025-11-11 17:55:00,,18,Oberndorf Feuersee,,tub:33018::H:j25:164,2025-11-11,,48.51051,9.04342,2025-11-11 17:00,11.8,0.0,5.8,30,63,1017.0,75,dry,partly-cloudy-night,64012,Rottenburg-Kiebingen
de:08416:10904,de:08416:10904:0:1,Tübingen Freibad,2025-11-11 17:59:00,,19,Bühl Römerstraße,,rab:24019::H:25a:232,2025-11-11,,48.51051,9.04342,2025-11-11 17:00,11.8,0.0,5.8,30,63,1017.0,75,dry,partly-cloudy-night,64012,Rottenburg-Kiebingen
de:08416:10904,de:08416:10904:0:4,Tübingen Freibad,2025-11-11 17:16:00,2025-11-11 17:32:00,18,Hagelloch Dornäckerweg,,tub:33018::R:j25:10,2025-11-11,16.0,48.51051,9.04342,2025-11-11 17:00,11.8,0.0,5.8,30,63,1017.0,75,dry,partly-cloudy-night,64012,Rottenburg-Kiebingen
de:08416:10904,de:08416:10904:0:4,Tübingen Freibad,2025-11-11 17:26:00,,19,Tübingen BG Unfallklinik,,rab:24019::R:25a:129,2025-11-11,,48.51051,9.04342,2025-11-11 17:00,11.8,0.0,5.8,30,63,1017.0,75,dry,partly-cloudy-night,64012,Rottenburg-Kiebingen
de:08416:10904,de:08416:10904:0:4,Tübingen Freibad,2025-11-11 17:38:00,,19,Tübingen Hauptbahnhof,,rab:24019::R:25a:8,2025-11-11,,48.51051,9.04342,2025-11-11 17:00,11.8,0.0,5.8,30,63,1017.0,75,dry,partly-cloudy-night,64012,Rottenburg-Kiebingen
de:08416:10904,de:08416:10904:0:4,Tübingen Freibad,2025-11-11 17:46:00,2025-11-11 17:50:30,18,Tübingen Hauptbahnhof,,tub:33018::R:j25:57,2025-11-11,4.5,48.51051,9.04342,2025-11-11 17:00,11.8,0.0,5.8,30,63,1017.0,75,dry,partly-cloudy-night,64012,Rottenburg-Kiebingen
de:08416:10904,de:08416:10904:0:4,Tübingen Freibad,2025-11-11 17:46:00,,18,Hagelloch Dornäckerweg,,tub:33018::R:j25:11,2025-11-11,,48.51051,9.04342,2025-11-11 17:00,11.8,0.0,5.8,30,63,1017.0,75,dry,partly-cloudy-night,64012,Rottenburg-Kiebingen
de:08416:10904,de:08416:10904:0:4,Tübingen Freibad,2025-11-11 17:56:00,,19,Tübingen BG Unfallklinik,,rab:24019::R:25a:130,2025-11-11,,48.51051,9.04342,2025-11-11 17:00,11.8,0.0,5.8,30,63,1017.0,75,dry,partly-cloudy-night,64012,Rottenburg-Kiebingen
