stop_id,stop_point_ref,stop_name,planned_time,estimated_time,line_name,destination,platform,journey_ref,operating_day_ref,delay_minutes,latitude,longitude,weather_timestamp,temperature,precipitation_mm,wind_speed_ms,wind_direction_deg,cloud_cover,pressure_hpa,relative_humidity,condition,icon,weather_source_id,weather_station_name
de:08416:10044,de:08416:10044:0:4,Tübingen Neckarhalde,2025-11-08 20:43,2025-11-08 20:43,6,Tübingen Hauptbahnhof,,tub:09006::R:j25:65,2025-11-08,0.0,48.51764,9.04762,2025-11-08 20:30,5.4,0.0,,,,,90,,clear-night,64012,Rottenburg-Kiebingen
de:08416:10044,de:08416:10044:0:4,Tübingen Neckarhalde,2025-11-08 21:13,2025-11-08 21:13,6,Tübingen Hauptbahnhof,,tub:09006::R:j25:66,2025-11-08,0.0,48.51764,9.04762,2025-11-08 20:30,5.4,0.0,,,,,90,,clear-night,64012,Rottenburg-Kiebingen
de:08416:10044,de:08416:10044:0:4,Tübingen Neckarhalde,2025-11-08 21:43,2025-11-08 21:43,6,Tübingen Hauptbahnhof,,tub:09006::R:j25:67,2025-11-08,0.0,48.51764,9.04762,2025-11-08 20:30,5.4,0.0,,,,,90,,clear-night,64012,Rottenburg-Kiebingen
de:08416:10044,de:08416:10044:0:4,Tübingen Neckarhalde,2025-11-08 22:13,,6,Tübingen Hauptbahnhof,,tub:09006::R:j25:68,2025-11-08,,48.51764,9.04762,2025-11-08 20:30,5.4,0.0,,,,,90,,clear-night,64012,Rottenburg-Kiebingen
de:08416:10044,de:08416:10044:0:4,Tübingen Neckarhalde,2025-11-08 22:43,,6,Tübingen Hauptbahnhof,,tub:09006::R:j25:69,2025-11-08,,48.51764,9.04762,2025-11-08 20:30,5.4,0.0,,,,,90,,clear-night,64012,Rottenburg-Kiebingen
de:08416:10044,de:08416:10044:0:4,Tübingen Neckarhalde,2025-11-08 23:13,,6,Tübingen Hauptbahnhof,,tub:09006::R:j25:70,2025-11-08,,48.51764,9.04762,2025-11-08 20:30,5.4,0.0,,,,,90,,clear-night,64012,Rottenburg-Kiebingen
de:08416:10044,de:08416:10044:0:4,Tübingen Neckarhalde,2025-11-08 23:43,,6,Tübingen Hauptbahnhof,,tub:09006::R:j25:71,2025-11-08,,48.51764,9.04762,2025-11-08 20:30,5.4,0.0,,,,,90,,clear-night,64012,Rottenburg-Kiebingen
de:08416:10044,de:08416:10044:0:4,Tübingen Neckarhalde,2025-11-09 00:13,,6,Tübingen Hauptbahnhof,,tub:09006::R:j25:72,2025-11-09,,48.51764,9.04762,2025-11-08 20:30,5.4,0.0,,,,,90,,clear-night,64012,Rottenburg-Kiebingen
de:08416:10044,de:08416:10044:0:4,Tübingen Neckarhalde,2025-11-09 06:43,,6,Tübingen Hauptbahnhof,,tub:09006::R:j25:73,2025-11-09,,48.51764,9.04762,2025-11-08 20:30,5.4,0.0,,,,,90,,clear-night,64012,Rottenburg-Kiebingen
de:08416:10044,de:08416:10044:0:4,Tübingen Neckarhalde,2025-11-09 07:43,,6,Tübingen Hauptbahnhof,,tub:09006::R:j25:74,2025-11-09,,48.51764,9.04762,2025-11-08 20:30,5.4,0.0,,,,,90,,clear-night,64012,Rottenburg-Kiebingen
de:08416:10044,de:08416:10044:0:1,Tübingen Neckarhalde,2025-11-08 21:07,2025-11-08 21:07,6,Tübingen Hirschauer Straße,,tub:09006::H:j25:254,2025-11-08,0.0,48.51764,9.04762,2025-11-08 20:30,5.4,0.0,,,,,90,,clear-night,64012,Rottenburg-Kiebingen
de:08416:10044,de:08416:10044:0:1,Tübingen Neckarhalde,2025-11-08 21:37,2025-11-08 21:37,6,Tübingen Hirschauer Straße,,tub:09006::H:j25:255,2025-11-08,0.0,48.51764,9.04762,2025-11-08 20:30,5.4,0.0,,,,,90,,clear-night,64012,Rottenburg-Kiebingen
de:08416:10044,de:08416:10044:0:1,Tübingen Neckarhalde,2025-11-08 22:07,2025-11-08 22:07,6,Tübingen Hirschauer Straße,,tub:09006::H:j25:256,2025-11-08,0.0,48.51764,9.04762,2025-11-08 20:30,5.4,0.0,,,,,90,,clear-night,64012,Rottenburg-Kiebingen
de:08416:10044,de:08416:10044:0:1,Tübingen Neckarhalde,2025-11-08 22:37,,6,Tübingen Hirschauer Straße,,tub:09006::H:j25:257,2025-11-08,,48.51764,9.04762,2025-11-08 20:30,5.4,0.0,,,,,90,,clear-night,64012,Rottenburg-Kiebingen
de:08416:10044,de:08416:10044:0:1,Tübingen Neckarhalde,2025-11-08 23:07,,6,Tübingen Hirschauer Straße,,tub:09006::H:j25:258,2025-11-08,,48.51764,9.04762,2025-11-08 20:30,5.4,0.0,,,,,90,,clear-night,64012,Rottenburg-Kiebingen
de:08416:10044,de:08416:10044:0:1,Tübingen Neckarhalde,2025-11-08 23:37,,6,Tübingen Hirschauer Straße,,tub:09006::H:j25:259,2025-11-08,,48.51764,9.04762,2025-11-08 20:30,5.4,0.0,,,,,90,,clear-night,64012,Rottenburg-Kiebingen
de:08416:10044,de:08416:10044:0:1,Tübingen Neckarhalde,2025-11-09 00:07,,6,Tübingen Hirschauer Straße,,tub:09006::H:j25:260,2025-11-09,,48.51764,9.04762,2025-11-08 20:30,5.4,0.0,,,,,90,,clear-night,64012,Rottenburg-Kiebingen
de:08416:10044,de:08416:10044:0:1,Tübingen Neckarhalde,2025-11-09 06:37,,6,Tübingen Hirschauer Straße,,tub:09006::H:j25:261,2025-11-09,,48.51764,9.04762,2025-11-08 20:30,5.4,0.0,,,,,90,,clear-night,64012,Rottenburg-Kiebingen
de:08416:10044,de:08416:10044:0:1,Tübingen Neckarhalde,2025-11-09 07:37,,6,Tübingen Hirschauer Straße,,tub:09006::H:j25:262,2025-11-09,,48.51764,9.04762,2025-11-08 20:30,5.4,0.0,,,,,90,,clear-night,64012,Rottenburg-Kiebingen
de:08416:10044,de:08416:10044:0:1,Tübingen Neckarhalde,2025-11-09 08:07,,6,Tübingen Hirschauer Straße,,tub:09006::H:j25:263,2025-11-09,,48.51764,9.04762,2025-11-08 20:30,5.4,0.0,,,,,90,,clear-night,64012,Rottenburg-Kiebingen
de:08416:11000,de:08416:11000:3:2,Tübingen Hauptbahnhof,2025-11-08 20:33,2025-11-08 20:47,MEX18,Heilbronn Hauptbahnhof,2,ddb:90T18:S:R:j25:586,2025-11-08,14.0,48.51624,9.05388,2025-11-08 20:30,6.5,0.0,,,,,84,,clear-night,64012,Rottenburg-Kiebingen
de:08416:11000,de:08416:11000:3:2,Tübingen Hauptbahnhof,2025-11-08 21:00,2025-11-08 21:05,RE 6,Aulendorf Bahnhof,2 C-D,ddb:90T06:A:H:j25:25,2025-11-08,5.0,48.51624,9.05388,2025-11-08 20:30,6.5,0.0,,,,,84,,clear-night,64012,Rottenburg-Kiebingen
de:08416:11000,de:08416:11000:3:2,Tübingen Hauptbahnhof,2025-11-08 21:03,2025-11-08 21:06,RB 6,Rottenburg Bahnhof,2 A-B,ddb:90T06::R:j25:105,2025-11-08,3.0,48.51624,9.05388,2025-11-08 20:30,6.5,0.0,,,,,84,,clear-night,64012,Rottenburg-Kiebingen
de:08416:11000,de:08416:11000:3:2,Tübingen Hauptbahnhof,2025-11-08 22:33,2025-11-08 22:33,MEX18,Heilbronn Hauptbahnhof,2,ddb:90T18:S:R:j25:412,2025-11-08,0.0,48.51624,9.05388,2025-11-08 20:30,6.5,0.0,,,,,84,,clear-night,64012,Rottenburg-Kiebingen
de:08416:11000,de:08416:11000:3:2,Tübingen Hauptbahnhof,2025-11-08 23:10,,RE 6,Sigmaringen Bahnhof,2,ddb:90T06:A:H:j25:28,2025-11-08,,48.51624,9.05388,2025-11-08 20:30,6.5,0.0,,,,,84,,clear-night,64012,Rottenburg-Kiebingen
de:08416:11000,de:08416:11000:3:2,Tübingen Hauptbahnhof,2025-11-09 01:47,,RB 63,Reutlingen Hauptbahnhof,2,ddb:90T63::H:j25:167,2025-11-09,,48.51624,9.05388,2025-11-08 20:30,6.5,0.0,,,,,84,,clear-night,64012,Rottenburg-Kiebingen
de:08416:11000,de:08416:11000:3:2,Tübingen Hauptbahnhof,2025-11-09 03:20,,RB 63,Herrenberg,2,ddb:90T63::R:j25:356,2025-11-09,,48.51624,9.05388,2025-11-08 20:30,6.5,0.0,,,,,84,,clear-night,64012,Rottenburg-Kiebingen
de:08416:11000,de:08416:11000:3:2,Tübingen Hauptbahnhof,2025-11-09 06:39,,RB 63,Reutlingen Hauptbahnhof,2,ddb:90T63::H:j25:54,2025-11-09,,48.51624,9.05388,2025-11-08 20:30,6.5,0.0,,,,,84,,clear-night,64012,Rottenburg-Kiebingen
de:08416:11000,de:08416:11000:3:2,Tübingen Hauptbahnhof,2025-11-09 06:58,,RE 6,Aulendorf Bahnhof,2,ddb:90T06:A:H:j25:15,2025-11-09,,48.51624,9.05388,2025-11-08 20:30,6.5,0.0,,,,,84,,clear-night,64012,Rottenburg-Kiebingen
de:08416:11000,de:08416:11000:3:2,Tübingen Hauptbahnhof,2025-11-09 09:00,,RE 6,Aulendorf Bahnhof,2 C-D,ddb:90T06:A:H:j25:17,2025-11-09,,48.51624,9.05388,2025-11-08 20:30,6.5,0.0,,,,,84,,clear-night,64012,Rottenburg-Kiebingen
de:08416:11000,de:08416:11000:2:1,Tübingen Hauptbahnhof,2025-11-08 20:39,,RB 63,Reutlingen Hauptbahnhof,1,ddb:90T63::H:j25:144,2025-11-08,,48.51624,9.05388,2025-11-08 20:30,6.5,0.0,,,,,84,,clear-night,64012,Rottenburg-Kiebingen
de:08416:11000,de:08416:11000:2:1,Tübingen Hauptbahnhof,2025-11-08 21:29,,RB 74,Horb Bahnhof/ZOB,2 F-G,ddb:90T74::R:j25:334,2025-11-08,,48.51624,9.05388,2025-11-08 20:30,6.5,0.0,,,,,84,,clear-night,64012,Rottenburg-Kiebingen
de:08416:11000,de:08416:11000:2:1,Tübingen Hauptbahnhof,2025-11-08 21:39,,RB 63,Reutlingen Hauptbahnhof,1,ddb:90T63::H:j25:148,2025-11-08,,48.51624,9.05388,2025-11-08 20:30,6.5,0.0,,,,,84,,clear-night,64012,Rottenburg-Kiebingen
de:08416:11000,de:08416:11000:2:1,Tübingen Hauptbahnhof,2025-11-08 22:39,,RB 63,Reutlingen Hauptbahnhof,1,ddb:90T63::H:j25:152,2025-11-08,,48.51624,9.05388,2025-11-08 20:30,6.5,0.0,,,,,84,,clear-night,64012,Rottenburg-Kiebingen
de:08416:11000,de:08416:11000:2:1,Tübingen Hauptbahnhof,2025-11-08 23:39,,RB 63,Reutlingen Hauptbahnhof,1,ddb:90T63::H:j25:156,2025-11-08,,48.51624,9.05388,2025-11-08 20:30,6.5,0.0,,,,,84,,clear-night,64012,Rottenburg-Kiebingen
de:08416:11000,de:08416:11000:2:1,Tübingen Hauptbahnhof,2025-11-09 00:48,,RB 63,Reutlingen Hauptbahnhof,1,ddb:90T63::H:j25:163,2025-11-09,,48.51624,9.05388,2025-11-08 20:30,6.5,0.0,,,,,84,,clear-night,64012,Rottenburg-Kiebingen
de:08416:11000,de:08416:11000:2:1,Tübingen Hauptbahnhof,2025-11-09 01:41,,RB 63,Herrenberg,1,ddb:90T63::R:j25:354,2025-11-09,,48.51624,9.05388,2025-11-08 20:30,6.5,0.0,,,,,84,,clear-night,64012,Rottenburg-Kiebingen
de:08416:11000,de:08416:11000:2:1,Tübingen Hauptbahnhof,2025-11-09 05:21,,RB 63,Reutlingen Hauptbahnhof,1,ddb:90T63::H:j25:44,2025-11-09,,48.51624,9.05388,2025-11-08 20:30,6.5,0.0,,,,,84,,clear-night,64012,Rottenburg-Kiebingen
de:08416:11000,de:08416:11000:2:1,Tübingen Hauptbahnhof,2025-11-09 07:39,,RB 63,Reutlingen Hauptbahnhof,1,ddb:90T63::H:j25:62,2025-11-09,,48.51624,9.05388,2025-11-08 20:30,6.5,0.0,,,,,84,,clear-night,64012,Rottenburg-Kiebingen
de:08416:11000,de:08416:11000:2:1,Tübingen Hauptbahnhof,2025-11-09 08:33,,MEX18,Heilbronn Hauptbahnhof,1,ddb:90T18:S:R:j25:464,2025-11-09,,48.51624,9.05388,2025-11-08 20:30,6.5,0.0,,,,,84,,clear-night,64012,Rottenburg-Kiebingen
de:08416:11000,de:08416:11000:2:13,Tübingen Hauptbahnhof,2025-11-08 20:41,2025-11-08 20:41,RB 63,Herrenberg,13,ddb:90T63::R:j25:473,2025-11-08,0.0,48.51624,9.05388,2025-11-08 20:30,6.5,0.0,,,,,84,,clear-night,64012,Rottenburg-Kiebingen
de:08416:11000,de:08416:11000:2:13,Tübingen Hauptbahnhof,2025-11-08 21:11,,RB 63,Herrenberg,13,ddb:90T63::R:j25:475,2025-11-08,,48.51624,9.05388,2025-11-08 20:30,6.5,0.0,,,,,84,,clear-night,64012,Rottenburg-Kiebingen
de:08416:11000,de:08416:11000:2:13,Tübingen Hauptbahnhof,2025-11-08 21:41,,RB 63,Herrenberg,13,ddb:90T63::R:j25:478,2025-11-08,,48.51624,9.05388,2025-11-08 20:30,6.5,0.0,,,,,84,,clear-night,64012,Rottenburg-Kiebingen
de:08416:11000,de:08416:11000:2:13,Tübingen Hauptbahnhof,2025-11-08 22:11,,RB 63,Herrenberg,13,ddb:90T63::R:j25:479,2025-11-08,,48.51624,9.05388,2025-11-08 20:30,6.5,0.0,,,,,84,,clear-night,64012,Rottenburg-Kiebingen
de:08416:11000,de:08416:11000:2:13,Tübingen Hauptbahnhof,2025-11-08 22:41,,RB 63,Herrenberg,13,ddb:90T63::R:j25:482,2025-11-08,,48.51624,9.05388,2025-11-08 20:30,6.5,0.0,,,,,84,,clear-night,64012,Rottenburg-Kiebingen
de:08416:11000,de:08416:11000:2:13,Tübingen Hauptbahnhof,2025-11-08 23:11,,RB 63,Herrenberg,13,ddb:90T63::R:j25:483,2025-11-08,,48.51624,9.05388,2025-11-08 20:30,6.5,0.0,,,,,84,,clear-night,64012,Rottenburg-Kiebingen
de:08416:11000,de:08416:11000:2:13,Tübingen Hauptbahnhof,2025-11-08 23:41,,RB 63,Herrenberg,13,ddb:90T63::R:j25:486,2025-11-08,,48.51624,9.05388,2025-11-08 20:30,6.5,0.0,,,,,84,,clear-night,64012,Rottenburg-Kiebingen
de:08416:11000,de:08416:11000:2:13,Tübingen Hauptbahnhof,2025-11-09 00:41,,RB 63,Herrenberg,13,ddb:90T63::R:j25:351,2025-11-09,,48.51624,9.05388,2025-11-08 20:30,6.5,0.0,,,,,84,,clear-night,64012,Rottenburg-Kiebingen
de:08416:11000,de:08416:11000:2:13,Tübingen Hauptbahnhof,2025-11-09 04:27,,RB 63,Herrenberg,13,ddb:90T63::R:j25:357,2025-11-09,,48.51624,9.05388,2025-11-08 20:30,6.5,0.0,,,,,84,,clear-night,64012,Rottenburg-Kiebingen
de:08416:11000,de:08416:11000:2:13,Tübingen Hauptbahnhof,2025-11-09 05:11,,RB 63,Herrenberg,13,ddb:90T63::R:j25:359,2025-11-09,,48.51624,9.05388,2025-11-08 20:30,6.5,0.0,,,,,84,,clear-night,64012,Rottenburg-Kiebingen
de:08416:11000,de:08416:11000:12:E,Tübingen Hauptbahnhof,2025-11-08 20:42,2025-11-08 20:42,3,Tübingen Nelkenweg,Bstg. E,tub:09003::H:j25:828,2025-11-08,0.0,48.51624,9.05388,2025-11-08 20:30,6.5,0.0,,,,,84,,clear-night,64012,Rottenburg-Kiebingen
de:08416:11000,de:08416:11000:12:E,Tübingen Hauptbahnhof,2025-11-08 20:56,2025-11-08 20:56,5,Tübingen Derend. Käppele,Bstg. E,tub:09005::H:j25:875,2025-11-08,0.0,48.51624,9.05388,2025-11-08 20:30,6.5,0.0,,,,,84,,clear-night,64012,Rottenburg-Kiebingen
de:08416:11000,de:08416:11000:12:E,Tübingen Hauptbahnhof,2025-11-08 21:12,2025-11-08 21:12,3,Tübingen Nelkenweg,Bstg. E,tub:09003::H:j25:831,2025-11-08,0.0,48.51624,9.05388,2025-11-08 20:30,6.5,0.0,,,,,84,,clear-night,64012,Rottenburg-Kiebingen
de:08416:11000,de:08416:11000:12:E,Tübingen Hauptbahnhof,2025-11-08 21:26,2025-11-08 21:26,5,Tübingen Derend. Käppele,Bstg. E,tub:09005::H:j25:879,2025-11-08,0.0,48.51624,9.05388,2025-11-08 20:30,6.5,0.0,,,,,84,,clear-night,64012,Rottenburg-Kiebingen
de:08416:11000,de:08416:11000:12:E,Tübingen Hauptbahnhof,2025-11-08 21:42,2025-11-08 21:42,3,Tübingen Nelkenweg,Bstg. E,tub:09003::H:j25:834,2025-11-08,0.0,48.51624,9.05388,2025-11-08 20:30,6.5,0.0,,,,,84,,clear-night,64012,Rottenburg-Kiebingen
de:08416:11000,de:08416:11000:12:E,Tübingen Hauptbahnhof,2025-11-08 21:56,2025-11-08 21:56,5,Tübingen Derend. Käppele,Bstg. E,tub:09005::H:j25:883,2025-11-08,0.0,48.51624,9.05388,2025-11-08 20:30,6.5,0.0,,,,,84,,clear-night,64012,Rottenburg-Kiebingen
de:08416:11000,de:08416:11000:12:E,Tübingen Hauptbahnhof,2025-11-08 22:12,2025-11-08 22:12,3,Tübingen Nelkenweg,Bstg. E,tub:09003::H:j25:837,2025-11-08,0.0,48.51624,9.05388,2025-11-08 20:30,6.5,0.0,,,,,84,,clear-night,64012,Rottenburg-Kiebingen
de:08416:11000,de:08416:11000:12:E,Tübingen Hauptbahnhof,2025-11-08 22:26,2025-11-08 22:26,5,Tübingen Derend. Käppele,Bstg. E,tub:09005::H:j25:887,2025-11-08,0.0,48.51624,9.05388,2025-11-08 20:30,6.5,0.0,,,,,84,,clear-night,64012,Rottenburg-Kiebingen
de:08416:11000,de:08416:11000:12:E,Tübingen Hauptbahnhof,2025-11-08 22:42,,3,Tübingen Nelkenweg,Bstg. E,tub:09003::H:j25:840,2025-11-08,,48.51624,9.05388,2025-11-08 20:30,6.5,0.0,,,,,84,,clear-night,64012,Rottenburg-Kiebingen
de:08416:11000,de:08416:11000:12:E,Tübingen Hauptbahnhof,2025-11-08 22:56,2025-11-08 22:56,5,Tübingen Derend. Käppele,Bstg. E,tub:09005::H:j25:890,2025-11-08,0.0,48.51624,9.05388,2025-11-08 20:30,6.5,0.0,,,,,84,,clear-night,64012,Rottenburg-Kiebingen
de:08416:11000,de:08416:11000:11:A,Tübingen Hauptbahnhof,2025-11-08 20:46,2025-11-08 20:46,3,Tübingen WHO Ulmenweg,Bstg. A,tub:09003::R:j25:330,2025-11-08,0.1,48.51624,9.05388,2025-11-08 20:30,6.5,0.0,,,,,84,,clear-night,64012,Rottenburg-Kiebingen
de:08416:11000,de:08416:11000:11:A,Tübingen Hauptbahnhof,2025-11-08 20:48,2025-11-08 20:48,6,Tübingen Sand Drosselweg,Bstg. A,tub:09006::R:j25:137,2025-11-08,0.0,48.51624,9.05388,2025-11-08 20:30,6.5,0.0,,,,,84,,clear-night,64012,Rottenburg-Kiebingen
de:08416:11000,de:08416:11000:11:A,Tübingen Hauptbahnhof,2025-11-08 20:56,2025-11-08 20:56,4,Tübingen WHO Ulmenweg,Bstg. A,tub:09004::R:j25:206,2025-11-08,0.0,48.51624,9.05388,2025-11-08 20:30,6.5,0.0,,,,,84,,clear-night,64012,Rottenburg-Kiebingen
de:08416:11000,de:08416:11000:11:A,Tübingen Hauptbahnhof,2025-11-08 21:02,2025-11-08 21:02,2,Tübingen WHO Ulmenweg,Bstg. A,tub:09002::R:j25:135,2025-11-08,0.0,48.51624,9.05388,2025-11-08 20:30,6.5,0.0,,,,,84,,clear-night,64012,Rottenburg-Kiebingen
de:08416:11000,de:08416:11000:11:A,Tübingen Hauptbahnhof,2025-11-08 21:16,2025-11-08 21:16,3,Tübingen WHO Ulmenweg,Bstg. A,tub:09003::R:j25:332,2025-11-08,0.0,48.51624,9.05388,2025-11-08 20:30,6.5,0.0,,,,,84,,clear-night,64012,Rottenburg-Kiebingen
de:08416:11000,de:08416:11000:11:A,Tübingen Hauptbahnhof,2025-11-08 21:26,2025-11-08 21:26,4,Tübingen WHO Ulmenweg,Bstg. A,tub:09004::R:j25:208,2025-11-08,0.0,48.51624,9.05388,2025-11-08 20:30,6.5,0.0,,,,,84,,clear-night,64012,Rottenburg-Kiebingen
de:08416:11000,de:08416:11000:11:A,Tübingen Hauptbahnhof,2025-11-08 21:32,2025-11-08 21:32,2,Tübingen WHO Ulmenweg,Bstg. A,tub:09002::R:j25:136,2025-11-08,0.0,48.51624,9.05388,2025-11-08 20:30,6.5,0.0,,,,,84,,clear-night,64012,Rottenburg-Kiebingen
de:08416:11000,de:08416:11000:11:A,Tübingen Hauptbahnhof,2025-11-08 21:46,2025-11-08 21:46,3,Tübingen WHO Ulmenweg,Bstg. A,tub:09003::R:j25:334,2025-11-08,0.0,48.51624,9.05388,2025-11-08 20:30,6.5,0.0,,,,,84,,clear-night,64012,Rottenburg-Kiebingen
de:08416:11000,de:08416:11000:11:A,Tübingen Hauptbahnhof,2025-11-08 21:48,2025-11-08 21:48,6,Tübingen Sand Drosselweg,Bstg. A,tub:09006::R:j25:138,2025-11-08,0.0,48.51624,9.05388,2025-11-08 20:30,6.5,0.0,,,,,84,,clear-night,64012,Rottenburg-Kiebingen
de:08416:11000,de:08416:11000:11:A,Tübingen Hauptbahnhof,2025-11-08 21:56,2025-11-08 21:56,4,Tübingen WHO Ulmenweg,Bstg. A,tub:09004::R:j25:210,2025-11-08,0.0,48.51624,9.05388,2025-11-08 20:30,6.5,0.0,,,,,84,,clear-night,64012,Rottenburg-Kiebingen
de:08416:11000,de:08416:11000:11:B,Tübingen Hauptbahnhof,2025-11-08 20:47,2025-11-08 20:47,5,Tübingen WHO Ahornweg,Bstg. B,tub:09005::R:j25:343,2025-11-08,0.0,48.51624,9.05388,2025-11-08 20:30,6.5,0.0,,,,,84,,clear-night,64012,Rottenburg-Kiebingen
de:08416:11000,de:08416:11000:11:B,Tübingen Hauptbahnhof,2025-11-08 21:02,2025-11-08 21:02,5,Tübingen WHO Ahornweg,Bstg. B,tub:09005::R:j25:344,2025-11-08,0.0,48.51624,9.05388,2025-11-08 20:30,6.5,0.0,,,,,84,,clear-night,64012,Rottenburg-Kiebingen
de:08416:11000,de:08416:11000:11:B,Tübingen Hauptbahnhof,2025-11-08 21:17,2025-11-08 21:17,5,Tübingen WHO Ahornweg,Bstg. B,tub:09005::R:j25:347,2025-11-08,0.0,48.51624,9.05388,2025-11-08 20:30,6.5,0.0,,,,,84,,clear-night,64012,Rottenburg-Kiebingen
de:08416:11000,de:08416:11000:11:B,Tübingen Hauptbahnhof,2025-11-08 21:32,2025-11-08 21:32,5,Tübingen WHO Ahornweg,Bstg. B,tub:09005::R:j25:348,2025-11-08,0.0,48.51624,9.05388,2025-11-08 20:30,6.5,0.0,,,,,84,,clear-night,64012,Rottenburg-Kiebingen
de:08416:11000,de:08416:11000:11:B,Tübingen Hauptbahnhof,2025-11-08 21:47,2025-11-08 21:47,5,Tübingen WHO Ahornweg,Bstg. B,tub:09005::R:j25:351,2025-11-08,0.0,48.51624,9.05388,2025-11-08 20:30,6.5,0.0,,,,,84,,clear-night,64012,Rottenburg-Kiebingen
de:08416:11000,de:08416:11000:11:B,Tübingen Hauptbahnhof,2025-11-08 22:02,2025-11-08 22:02,5,Tübingen WHO Ahornweg,Bstg. B,tub:09005::R:j25:352,2025-11-08,0.0,48.51624,9.05388,2025-11-08 20:30,6.5,0.0,,,,,84,,clear-night,64012,Rottenburg-Kiebingen
de:08416:11000,de:08416:11000:11:B,Tübingen Hauptbahnhof,2025-11-08 22:32,,5,Tübingen WHO Ahornweg,Bstg. B,tub:09005::R:j25:354,2025-11-08,,48.51624,9.05388,2025-11-08 20:30,6.5,0.0,,,,,84,,clear-night,64012,Rottenburg-Kiebingen
de:08416:11000,de:08416:11000:11:B,Tübingen Hauptbahnhof,2025-11-08 23:02,,5,Tübingen WHO Ahornweg,Bstg. B,tub:09005::R:j25:356,2025-11-08,,48.51624,9.05388,2025-11-08 20:30,6.5,0.0,,,,,84,,clear-night,64012,Rottenburg-Kiebingen
de:08416:11000,de:08416:11000:11:B,Tübingen Hauptbahnhof,2025-11-08 23:32,,5,Tübingen WHO Ahornweg,Bstg. B,tub:09005::R:j25:358,2025-11-08,,48.51624,9.05388,2025-11-08 20:30,6.5,0.0,,,,,84,,clear-night,64012,Rottenburg-Kiebingen
de:08416:11000,de:08416:11000:11:B,Tübingen Hauptbahnhof,2025-11-09 00:02,,5,Tübingen WHO Ahornweg,Bstg. B,tub:09005::R:j25:360,2025-11-09,,48.51624,9.05388,2025-11-08 20:30,6.5,0.0,,,,,84,,clear-night,64012,Rottenburg-Kiebingen
de:08416:11000,de:08416:11000:12:D,Tübingen Hauptbahnhof,2025-11-08 20:57,2025-11-08 20:57,22,Tübingen Carlo-Steeb-Str.,Bstg. D,tub:09022::H:j25:179,2025-11-08,0.0,48.51624,9.05388,2025-11-08 20:30,6.5,0.0,,,,,84,,clear-night,64012,Rottenburg-Kiebingen
de:08416:11000,de:08416:11000:12:D,Tübingen Hauptbahnhof,2025-11-08 21:04,2025-11-08 21:04,10,Tübingen Schwabstraße,Bstg. D,tub:09010::R:j25:181,2025-11-08,0.0,48.51624,9.05388,2025-11-08 20:30,6.5,0.0,,,,,84,,clear-night,64012,Rottenburg-Kiebingen
de:08416:11000,de:08416:11000:12:D,Tübingen Hauptbahnhof,2025-11-08 21:27,2025-11-08 21:27,22,Tübingen Carlo-Steeb-Str.,Bstg. D,tub:09022::H:j25:180,2025-11-08,0.0,48.51624,9.05388,2025-11-08 20:30,6.5,0.0,,,,,84,,clear-night,64012,Rottenburg-Kiebingen
de:08416:11000,de:08416:11000:12:D,Tübingen Hauptbahnhof,2025-11-08 21:34,2025-11-08 21:34,10,Tübingen Schwabstraße,Bstg. D,tub:09010::R:j25:182,2025-11-08,0.0,48.51624,9.05388,2025-11-08 20:30,6.5,0.0,,,,,84,,clear-night,64012,Rottenburg-Kiebingen
de:08416:11000,de:08416:11000:12:D,Tübingen Hauptbahnhof,2025-11-08 21:57,2025-11-08 21:57,22,Tübingen Carlo-Steeb-Str.,Bstg. D,tub:09022::H:j25:181,2025-11-08,0.0,48.51624,9.05388,2025-11-08 20:30,6.5,0.0,,,,,84,,clear-night,64012,Rottenburg-Kiebingen
de:08416:11000,de:08416:11000:12:D,Tübingen Hauptbahnhof,2025-11-08 22:04,2025-11-08 22:04,10,Tübingen Schwabstraße,Bstg. D,tub:09010::R:j25:183,2025-11-08,0.0,48.51624,9.05388,2025-11-08 20:30,6.5,0.0,,,,,84,,clear-night,64012,Rottenburg-Kiebingen
de:08416:11000,de:08416:11000:12:D,Tübingen Hauptbahnhof,2025-11-08 22:27,,22,Tübingen Carlo-Steeb-Str.,Bstg. D,tub:09022::H:j25:182,2025-11-08,,48.51624,9.05388,2025-11-08 20:30,6.5,0.0,,,,,84,,clear-night,64012,Rottenburg-Kiebingen
de:08416:11000,de:08416:11000:12:D,Tübingen Hauptbahnhof,2025-11-08 22:34,,10,Tübingen Schwabstraße,Bstg. D,tub:09010::R:j25:184,2025-11-08,,48.51624,9.05388,2025-11-08 20:30,6.5,0.0,,,,,84,,clear-night,64012,Rottenburg-Kiebingen
de:08416:11000,de:08416:11000:12:D,Tübingen Hauptbahnhof,2025-11-08 22:57,,22,Tübingen Carlo-Steeb-Str.,Bstg. D,tub:09022::H:j25:183,2025-11-08,,48.51624,9.05388,2025-11-08 20:30,6.5,0.0,,,,,84,,clear-night,64012,Rottenburg-Kiebingen
de:08416:11000,de:08416:11000:12:D,Tübingen Hauptbahnhof,2025-11-08 23:04,,10,Tübingen Schwabstraße,Bstg. D,tub:09010::R:j25:185,2025-11-08,,48.51624,9.05388,2025-11-08 20:30,6.5,0.0,,,,,84,,clear-night,64012,Rottenburg-Kiebingen
de:08416:11000,de:08416:11000:14:H,Tübingen Hauptbahnhof,2025-11-08 20:59,2025-11-08 20:59,19,Bühl Römerstraße,Bstg. H,rab:24019::H:25a:201,2025-11-08,0.0,48.51624,9.05388,2025-11-08 20:30,6.5,0.0,,,,,84,,clear-night,64012,Rottenburg-Kiebingen
de:08416:11000,de:08416:11000:14:H,Tübingen Hauptbahnhof,2025-11-08 21:05,2025-11-08 21:05,6,Tübingen Hirschauer Straße,Bstg. H,tub:09006::H:j25:254,2025-11-08,0.0,48.51624,9.05388,2025-11-08 20:30,6.5,0.0,,,,,84,,clear-night,64012,Rottenburg-Kiebingen
de:08416:11000,de:08416:11000:14:H,Tübingen Hauptbahnhof,2025-11-08 21:29,,19,Rottenburg Bahnhof,Bstg. H,rab:24019::H:25a:151,2025-11-08,,48.51624,9.05388,2025-11-08 20:30,6.5,0.0,,,,,84,,clear-night,64012,Rottenburg-Kiebingen
de:08416:11000,de:08416:11000:14:H,Tübingen Hauptbahnhof,2025-11-08 21:35,2025-11-08 21:35,6,Tübingen Hirschauer Straße,Bstg. H,tub:09006::H:j25:255,2025-11-08,0.0,48.51624,9.05388,2025-11-08 20:30,6.5,0.0,,,,,84,,clear-night,64012,Rottenburg-Kiebingen
de:08416:11000,de:08416:11000:14:H,Tübingen Hauptbahnhof,2025-11-08 21:59,,19,Bühl Römerstraße,Bstg. H,rab:24019::H:25a:202,2025-11-08,,48.51624,9.05388,2025-11-08 20:30,6.5,0.0,,,,,84,,clear-night,64012,Rottenburg-Kiebingen
de:08416:11000,de:08416:11000:14:H,Tübingen Hauptbahnhof,2025-11-08 22:05,2025-11-08 22:05,6,Tübingen Hirschauer Straße,Bstg. H,tub:09006::H:j25:256,2025-11-08,0.0,48.51624,9.05388,2025-11-08 20:30,6.5,0.0,,,,,84,,clear-night,64012,Rottenburg-Kiebingen
de:08416:11000,de:08416:11000:14:H,Tübingen Hauptbahnhof,2025-11-08 22:29,,19,Bühl Römerstraße,Bstg. H,rab:24019::H:25a:203,2025-11-08,,48.51624,9.05388,2025-11-08 20:30,6.5,0.0,,,,,84,,clear-night,64012,Rottenburg-Kiebingen
de:08416:11000,de:08416:11000:14:H,Tübingen Hauptbahnhof,2025-11-08 22:35,,6,Tübingen Hirschauer Straße,Bstg. H,tub:09006::H:j25:257,2025-11-08,,48.51624,9.05388,2025-11-08 20:30,6.5,0.0,,,,,84,,clear-night,64012,Rottenburg-Kiebingen
de:08416:11000,de:08416:11000:14:H,Tübingen Hauptbahnhof,2025-11-08 22:59,,19,Bühl Römerstraße,Bstg. H,rab:24019::H:25a:204,2025-11-08,,48.51624,9.05388,2025-11-08 20:30,6.5,0.0,,,,,84,,clear-night,64012,Rottenburg-Kiebingen
de:08416:11000,de:08416:11000:14:H,Tübingen Hauptbahnhof,2025-11-08 23:05,,6,Tübingen Hirschauer Straße,Bstg. H,tub:09006::H:j25:258,2025-11-08,,48.51624,9.05388,2025-11-08 20:30,6.5,0.0,,,,,84,,clear-night,64012,Rottenburg-Kiebingen
de:08416:11000,de:08416:11000:3:3,Tübingen Hauptbahnhof,2025-11-08 21:00,2025-11-08 21:06,RE 6,Stuttgart Hauptbahnhof (oben),3,ddb:90T06:A:R:j25:75,2025-11-08,6.0,48.51624,9.05388,2025-11-08 20:30,6.5,0.0,,,,,84,,clear-night,64012,Rottenburg-Kiebingen
de:08416:11000,de:08416:11000:3:3,Tübingen Hauptbahnhof,2025-11-09 01:04,,MEX12,Heilbronn Hauptbahnhof,3,ddb:90T12:S:R:j25:543,2025-11-09,,48.51624,9.05388,2025-11-08 20:30,6.5,0.0,,,,,84,,clear-night,64012,Rottenburg-Kiebingen
de:08416:11000,de:08416:11000:3:3,Tübingen Hauptbahnhof,2025-11-09 03:04,,MEX12,Heilbronn Hauptbahnhof,3,ddb:90T12:S:R:j25:440,2025-11-09,,48.51624,9.05388,2025-11-08 20:30,6.5,0.0,,,,,84,,clear-night,64012,Rottenburg-Kiebingen
de:08416:11000,de:08416:11000:3:3,Tübingen Hauptbahnhof,2025-11-09 04:56,,RE 6,Stuttgart Hauptbahnhof (oben),3,ddb:90T06:S:R:j25:30,2025-11-09,,48.51624,9.05388,2025-11-08 20:30,6.5,0.0,,,,,84,,clear-night,64012,Rottenburg-Kiebingen
de:08416:11000,de:08416:11000:3:3,Tübingen Hauptbahnhof,2025-11-09 05:33,,MEX18,Heilbronn Hauptbahnhof,3,ddb:90T18:S:R:j25:391,2025-11-09,,48.51624,9.05388,2025-11-08 20:30,6.5,0.0,,,,,84,,clear-night,64012,Rottenburg-Kiebingen
de:08416:11000,de:08416:11000:3:3,Tübingen Hauptbahnhof,2025-11-09 05:51,,RE 6,Stuttgart Hauptbahnhof (oben),3,ddb:90T06:S:R:j25:46,2025-11-09,,48.51624,9.05388,2025-11-08 20:30,6.5,0.0,,,,,84,,clear-night,64012,Rottenburg-Kiebingen
de:08416:11000,de:08416:11000:3:3,Tübingen Hauptbahnhof,2025-11-09 06:25,,RE 6,Bad Urach Bahnhof,3,ddb:90T06:S:R:j25:62,2025-11-09,,48.51624,9.05388,2025-11-08 20:30,6.5,0.0,,,,,84,,clear-night,64012,Rottenburg-Kiebingen
de:08416:11000,de:08416:11000:3:3,Tübingen Hauptbahnhof,2025-11-09 06:33,,MEX18,Heilbronn Hauptbahnhof,3,ddb:90T18:S:R:j25:444,2025-11-09,,48.51624,9.05388,2025-11-08 20:30,6.5,0.0,,,,,84,,clear-night,64012,Rottenburg-Kiebingen
de:08416:11000,de:08416:11000:3:3,Tübingen Hauptbahnhof,2025-11-09 07:00,,RE 6,Stuttgart Hauptbahnhof (oben),3,ddb:90T06:A:R:j25:77,2025-11-09,,48.51624,9.05388,2025-11-08 20:30,6.5,0.0,,,,,84,,clear-night,64012,Rottenburg-Kiebingen
de:08416:11000,de:08416:11000:3:3,Tübingen Hauptbahnhof,2025-11-09 07:29,,RB 66,Sigmaringen Bahnhof,3,ddb:90T66::H:j25:12,2025-11-09,,48.51624,9.05388,2025-11-08 20:30,6.5,0.0,,,,,84,,clear-night,64012,Rottenburg-Kiebingen
de:08416:11000,de:08416:11000:12:F,Tübingen Hauptbahnhof,2025-11-08 21:02,2025-11-08 21:02,4,Tübingen Wennf. Garten,Bstg. F,tub:09004::H:j25:502,2025-11-08,0.0,48.51624,9.05388,2025-11-08 20:30,6.5,0.0,,,,,84,,clear-night,64012,Rottenburg-Kiebingen
de:08416:11000,de:08416:11000:12:F,Tübingen Hauptbahnhof,2025-11-08 21:32,2025-11-08 21:32,4,Tübingen Wennf. Garten,Bstg. F,tub:09004::H:j25:504,2025-11-08,0.0,48.51624,9.05388,2025-11-08 20:30,6.5,0.0,,,,,84,,clear-night,64012,Rottenburg-Kiebingen
de:08416:11000,de:08416:11000:12:F,Tübingen Hauptbahnhof,2025-11-08 22:02,2025-11-08 22:02,4,Tübingen Wennf. Garten,Bstg. F,tub:09004::H:j25:506,2025-11-08,0.0,48.51624,9.05388,2025-11-08 20:30,6.5,0.0,,,,,84,,clear-night,64012,Rottenburg-Kiebingen
de:08416:11000,de:08416:11000:12:F,Tübingen Hauptbahnhof,2025-11-08 22:32,2025-11-08 22:32,4,Tübingen Wennf. Garten,Bstg. F,tub:09004::H:j25:508,2025-11-08,0.0,48.51624,9.05388,2025-11-08 20:30,6.5,0.0,,,,,84,,clear-night,64012,Rottenburg-Kiebingen
de:08416:11000,de:08416:11000:12:F,Tübingen Hauptbahnhof,2025-11-08 23:02,,4,Tübingen Wennf. Garten,Bstg. F,tub:09004::H:j25:510,2025-11-08,,48.51624,9.05388,2025-11-08 20:30,6.5,0.0,,,,,84,,clear-night,64012,Rottenburg-Kiebingen
de:08416:11000,de:08416:11000:12:F,Tübingen Hauptbahnhof,2025-11-08 23:32,,4,Tübingen Wennf. Garten,Bstg. F,tub:09004::H:j25:512,2025-11-08,,48.51624,9.05388,2025-11-08 20:30,6.5,0.0,,,,,84,,clear-night,64012,Rottenburg-Kiebingen
de:08416:11000,de:08416:11000:12:F,Tübingen Hauptbahnhof,2025-11-09 00:02,,4,Tübingen Wennf. Garten,Bstg. F,tub:09004::H:j25:514,2025-11-09,,48.51624,9.05388,2025-11-08 20:30,6.5,0.0,,,,,84,,clear-night,64012,Rottenburg-Kiebingen
de:08416:11000,de:08416:11000:12:F,Tübingen Hauptbahnhof,2025-11-09 01:00,,N95,Tübingen Hauptbahnhof,Bstg. F,tub:09095::H:j25:1,2025-11-09,,48.51624,9.05388,2025-11-08 20:30,6.5,0.0,,,,,84,,clear-night,64012,Rottenburg-Kiebingen
de:08416:11000,de:08416:11000:12:F,Tübingen Hauptbahnhof,2025-11-09 02:00,,N95,Tübingen Hauptbahnhof,Bstg. F,tub:09095::H:j25:6,2025-11-09,,48.51624,9.05388,2025-11-08 20:30,6.5,0.0,,,,,84,,clear-night,64012,Rottenburg-Kiebingen
de:08416:11000,de:08416:11000:12:F,Tübingen Hauptbahnhof,2025-11-09 03:00,,N95,Tübingen Hauptbahnhof,Bstg. F,tub:09095::H:j25:11,2025-11-09,,48.51624,9.05388,2025-11-08 20:30,6.5,0.0,,,,,84,,clear-night,64012,Rottenburg-Kiebingen
de:08416:11000,de:08416:11000:14:I,Tübingen Hauptbahnhof,2025-11-08 21:02,,11,Tübingen Schwärzlocher Str. 45,Bstg. I,tub:09011::R:j25:67,2025-11-08,,48.51624,9.05388,2025-11-08 20:30,6.5,0.0,,,,,84,,clear-night,64012,Rottenburg-Kiebingen
de:08416:11000,de:08416:11000:14:I,Tübingen Hauptbahnhof,2025-11-08 21:32,2025-11-08 21:32,9,Tübingen Bismarckturm,Bstg. I,tub:09009::R:j25:35,2025-11-08,0.0,48.51624,9.05388,2025-11-08 20:30,6.5,0.0,,,,,84,,clear-night,64012,Rottenburg-Kiebingen
de:08416:11000,de:08416:11000:14:I,Tübingen Hauptbahnhof,2025-11-08 22:02,2025-11-08 22:02,11,Tübingen Schwärzlocher Str. 45,Bstg. I,tub:09011::R:j25:69,2025-11-08,0.0,48.51624,9.05388,2025-11-08 20:30,6.5,0.0,,,,,84,,clear-night,64012,Rottenburg-Kiebingen
de:08416:11000,de:08416:11000:14:I,Tübingen Hauptbahnhof,2025-11-08 22:32,,9,Tübingen Bismarckturm,Bstg. I,tub:09009::R:j25:36,2025-11-08,,48.51624,9.05388,2025-11-08 20:30,6.5,0.0,,,,,84,,clear-night,64012,Rottenburg-Kiebingen
de:08416:11000,de:08416:11000:14:I,Tübingen Hauptbahnhof,2025-11-08 23:02,,11,Tübingen Schwärzlocher Str. 45,Bstg. I,tub:09011::R:j25:71,2025-11-08,,48.51624,9.05388,2025-11-08 20:30,6.5,0.0,,,,,84,,clear-night,64012,Rottenburg-Kiebingen
de:08416:11000,de:08416:11000:14:I,Tübingen Hauptbahnhof,2025-11-08 23:32,,9,Tübingen Bismarckturm,Bstg. I,tub:09009::R:j25:37,2025-11-08,,48.51624,9.05388,2025-11-08 20:30,6.5,0.0,,,,,84,,clear-night,64012,Rottenburg-Kiebingen
de:08416:11000,de:08416:11000:14:I,Tübingen Hauptbahnhof,2025-11-09 01:00,,N90,Tübingen Hauptbahnhof,Bstg. I,tub:09090::H:j25:2,2025-11-09,,48.51624,9.05388,2025-11-08 20:30,6.5,0.0,,,,,84,,clear-night,64012,Rottenburg-Kiebingen
de:08416:11000,de:08416:11000:14:I,Tübingen Hauptbahnhof,2025-11-09 02:00,,N90,Tübingen Hauptbahnhof,Bstg. I,tub:09090::H:j25:4,2025-11-09,,48.51624,9.05388,2025-11-08 20:30,6.5,0.0,,,,,84,,clear-night,64012,Rottenburg-Kiebingen
de:08416:11000,de:08416:11000:14:I,Tübingen Hauptbahnhof,2025-11-09 03:00,,N90,Tübingen Hauptbahnhof,Bstg. I,tub:09090::H:j25:6,2025-11-09,,48.51624,9.05388,2025-11-08 20:30,6.5,0.0,,,,,84,,clear-night,64012,Rottenburg-Kiebingen
de:08416:11000,de:08416:11000:14:I,Tübingen Hauptbahnhof,2025-11-09 04:00,,N90,Tübingen Hauptbahnhof,Bstg. I,tub:09090::H:j25:8,2025-11-09,,48.51624,9.05388,2025-11-08 20:30,6.5,0.0,,,,,84,,clear-night,64012,Rottenburg-Kiebingen
de:08416:11000,de:08416:11000:11:C,Tübingen Hauptbahnhof,2025-11-08 21:03,2025-11-08 21:03,1,Pfrondorf Lusstraße,Bstg. C,tub:09001::R:j25:778,2025-11-08,0.0,48.51624,9.05388,2025-11-08 20:30,6.5,0.0,,,,,84,,clear-night,64012,Rottenburg-Kiebingen
de:08416:11000,de:08416:11000:11:C,Tübingen Hauptbahnhof,2025-11-08 21:33,2025-11-08 21:33,1,Pfrondorf Lusstraße,Bstg. C,tub:09001::R:j25:780,2025-11-08,0.0,48.51624,9.05388,2025-11-08 20:30,6.5,0.0,,,,,84,,clear-night,64012,Rottenburg-Kiebingen
de:08416:11000,de:08416:11000:11:C,Tübingen Hauptbahnhof,2025-11-08 22:03,2025-11-08 22:03,1,Pfrondorf Lusstraße,Bstg. C,tub:09001::R:j25:782,2025-11-08,0.0,48.51624,9.05388,2025-11-08 20:30,6.5,0.0,,,,,84,,clear-night,64012,Rottenburg-Kiebingen
de:08416:11000,de:08416:11000:11:C,Tübingen Hauptbahnhof,2025-11-08 22:33,,1,Pfrondorf Lusstraße,Bstg. C,tub:09001::R:j25:784,2025-11-08,,48.51624,9.05388,2025-11-08 20:30,6.5,0.0,,,,,84,,clear-night,64012,Rottenburg-Kiebingen
de:08416:11000,de:08416:11000:11:C,Tübingen Hauptbahnhof,2025-11-08 23:03,,1,Pfrondorf Lusstraße,Bstg. C,tub:09001::R:j25:786,2025-11-08,,48.51624,9.05388,2025-11-08 20:30,6.5,0.0,,,,,84,,clear-night,64012,Rottenburg-Kiebingen
de:08416:11000,de:08416:11000:11:C,Tübingen Hauptbahnhof,2025-11-08 23:33,,1,Pfrondorf Lusstraße,Bstg. C,tub:09001::R:j25:788,2025-11-08,,48.51624,9.05388,2025-11-08 20:30,6.5,0.0,,,,,84,,clear-night,64012,Rottenburg-Kiebingen
de:08416:11000,de:08416:11000:11:C,Tübingen Hauptbahnhof,2025-11-09 00:03,,1,Pfrondorf Lusstraße,Bstg. C,tub:09001::R:j25:790,2025-11-09,,48.51624,9.05388,2025-11-08 20:30,6.5,0.0,,,,,84,,clear-night,64012,Rottenburg-Kiebingen
de:08416:11000,de:08416:11000:11:C,Tübingen Hauptbahnhof,2025-11-09 01:00,,N91,Tübingen Hauptbahnhof,Bstg. C,tub:09091::H:j25:1,2025-11-09,,48.51624,9.05388,2025-11-08 20:30,6.5,0.0,,,,,84,,clear-night,64012,Rottenburg-Kiebingen
de:08416:11000,de:08416:11000:11:C,Tübingen Hauptbahnhof,2025-11-09 02:00,,N91,Tübingen Hauptbahnhof,Bstg. C,tub:09091::H:j25:2,2025-11-09,,48.51624,9.05388,2025-11-08 20:30,6.5,0.0,,,,,84,,clear-night,64012,Rottenburg-Kiebingen
de:08416:11000,de:08416:11000:11:C,Tübingen Hauptbahnhof,2025-11-09 03:00,,N91,Tübingen Hauptbahnhof,Bstg. C,tub:09091::H:j25:3,2025-11-09,,48.51624,9.05388,2025-11-08 20:30,6.5,0.0,,,,,84,,clear-night,64012,Rottenburg-Kiebingen
de:08416:11000,de:08416:11000:13:K,Tübingen Hauptbahnhof,2025-11-08 21:04,2025-11-08 21:04,8,Hagelloch Dornäckerweg,Bstg. K,tub:09008::R:j25:453,2025-11-08,0.0,48.51624,9.05388,2025-11-08 20:30,6.5,0.0,,,,,84,,clear-night,64012,Rottenburg-Kiebingen
de:08416:11000,de:08416:11000:13:K,Tübingen Hauptbahnhof,2025-11-08 21:34,2025-11-08 21:34,8,Hagelloch Dornäckerweg,Bstg. K,tub:09008::R:j25:455,2025-11-08,0.0,48.51624,9.05388,2025-11-08 20:30,6.5,0.0,,,,,84,,clear-night,64012,Rottenburg-Kiebingen
de:08416:11000,de:08416:11000:13:K,Tübingen Hauptbahnhof,2025-11-08 22:04,2025-11-08 22:04,8,Hagelloch Dornäckerweg,Bstg. K,tub:09008::R:j25:457,2025-11-08,0.0,48.51624,9.05388,2025-11-08 20:30,6.5,0.0,,,,,84,,clear-night,64012,Rottenburg-Kiebingen
de:08416:11000,de:08416:11000:13:K,Tübingen Hauptbahnhof,2025-11-08 22:34,,8,Hagelloch Dornäckerweg,Bstg. K,tub:09008::R:j25:459,2025-11-08,,48.51624,9.05388,2025-11-08 20:30,6.5,0.0,,,,,84,,clear-night,64012,Rottenburg-Kiebingen
de:08416:11000,de:08416:11000:13:K,Tübingen Hauptbahnhof,2025-11-08 23:04,,8,Hagelloch Dornäckerweg,Bstg. K,tub:09008::R:j25:461,2025-11-08,,48.51624,9.05388,2025-11-08 20:30,6.5,0.0,,,,,84,,clear-night,64012,Rottenburg-Kiebingen
de:08416:11000,de:08416:11000:13:K,Tübingen Hauptbahnhof,2025-11-08 23:34,,8,Hagelloch Dornäckerweg,Bstg. K,tub:09008::R:j25:463,2025-11-08,,48.51624,9.05388,2025-11-08 20:30,6.5,0.0,,,,,84,,clear-night,64012,Rottenburg-Kiebingen
de:08416:11000,de:08416:11000:13:K,Tübingen Hauptbahnhof,2025-11-09 00:04,,8,Hagelloch Dornäckerweg,Bstg. K,tub:09008::R:j25:465,2025-11-09,,48.51624,9.05388,2025-11-08 20:30,6.5,0.0,,,,,84,,clear-night,64012,Rottenburg-Kiebingen
de:08416:11000,de:08416:11000:13:K,Tübingen Hauptbahnhof,2025-11-09 00:33,,N97,Tübingen Hauptbahnhof,Bstg. K,tub:09097::H:j25:1,2025-11-09,,48.51624,9.05388,2025-11-08 20:30,6.5,0.0,,,,,84,,clear-night,64012,Rottenburg-Kiebingen
de:08416:11000,de:08416:11000:13:K,Tübingen Hauptbahnhof,2025-11-09 01:33,,N97,Tübingen Hauptbahnhof,Bstg. K,tub:09097::H:j25:2,2025-11-09,,48.51624,9.05388,2025-11-08 20:30,6.5,0.0,,,,,84,,clear-night,64012,Rottenburg-Kiebingen
de:08416:11000,de:08416:11000:13:K,Tübingen Hauptbahnhof,2025-11-09 02:33,,N97,Tübingen Hauptbahnhof,Bstg. K,tub:09097::H:j25:3,2025-11-09,,48.51624,9.05388,2025-11-08 20:30,6.5,0.0,,,,,84,,clear-night,64012,Rottenburg-Kiebingen
de:08416:11000,de:08416:11000:4:5,Tübingen Hauptbahnhof,2025-11-08 21:05,2025-11-08 21:05,MEX12,Heilbronn Hauptbahnhof,5,ddb:90T12:S:R:j25:570,2025-11-08,0.0,48.51624,9.05388,2025-11-08 20:30,6.5,0.0,,,,,84,,clear-night,64012,Rottenburg-Kiebingen
de:08416:11000,de:08416:11000:4:5,Tübingen Hauptbahnhof,2025-11-08 21:33,2025-11-08 21:33,MEX18,Heilbronn Hauptbahnhof,5,ddb:90T18:S:R:j25:602,2025-11-08,0.0,48.51624,9.05388,2025-11-08 20:30,6.5,0.0,,,,,84,,clear-night,64012,Rottenburg-Kiebingen
de:08416:11000,de:08416:11000:4:5,Tübingen Hauptbahnhof,2025-11-08 21:58,2025-11-08 21:58,RE 6,Stuttgart Hauptbahnhof (oben),5,ddb:90T06:S:R:j25:57,2025-11-08,0.0,48.51624,9.05388,2025-11-08 20:30,6.5,0.0,,,,,84,,clear-night,64012,Rottenburg-Kiebingen
de:08416:11000,de:08416:11000:4:5,Tübingen Hauptbahnhof,2025-11-08 22:05,2025-11-08 22:05,MEX12,Heilbronn Hauptbahnhof,5,ddb:90T12:S:R:j25:587,2025-11-08,0.0,48.51624,9.05388,2025-11-08 20:30,6.5,0.0,,,,,84,,clear-night,64012,Rottenburg-Kiebingen
de:08416:11000,de:08416:11000:4:5,Tübingen Hauptbahnhof,2025-11-08 23:05,2025-11-08 23:05,MEX12,Heilbronn Hauptbahnhof,5,ddb:90T12:S:R:j25:608,2025-11-08,0.0,48.51624,9.05388,2025-11-08 20:30,6.5,0.0,,,,,84,,clear-night,64012,Rottenburg-Kiebingen
de:08416:11000,de:08416:11000:4:5,Tübingen Hauptbahnhof,2025-11-08 23:33,2025-11-08 23:33,MEX18,Stuttgart Hauptbahnhof (oben),5,ddb:90T18:S:R:j25:642,2025-11-08,0.0,48.51624,9.05388,2025-11-08 20:30,6.5,0.0,,,,,84,,clear-night,64012,Rottenburg-Kiebingen
de:08416:11000,de:08416:11000:4:5,Tübingen Hauptbahnhof,2025-11-09 00:33,,RB 74,Rottenburg Bahnhof,5,ddb:90T74::R:j25:372,2025-11-09,,48.51624,9.05388,2025-11-08 20:30,6.5,0.0,,,,,84,,clear-night,64012,Rottenburg-Kiebingen
de:08416:11000,de:08416:11000:4:5,Tübingen Hauptbahnhof,2025-11-09 07:33,,MEX18,Heilbronn Hauptbahnhof,5,ddb:90T18:S:R:j25:455,2025-11-09,,48.51624,9.05388,2025-11-08 20:30,6.5,0.0,,,,,84,,clear-night,64012,Rottenburg-Kiebingen
de:08416:11000,de:08416:11000:4:5,Tübingen Hauptbahnhof,2025-11-09 08:39,,RB 63,Reutlingen Hauptbahnhof,5,ddb:90T63::H:j25:70,2025-11-09,,48.51624,9.05388,2025-11-08 20:30,6.5,0.0,,,,,84,,clear-night,64012,Rottenburg-Kiebingen
de:08416:11000,de:08416:11000:4:5,Tübingen Hauptbahnhof,2025-11-09 09:05,,MEX12,Heilbronn Hauptbahnhof,5,ddb:90T12:S:R:j25:473,2025-11-09,,48.51624,9.05388,2025-11-08 20:30,6.5,0.0,,,,,84,,clear-night,64012,Rottenburg-Kiebingen
de:08416:11000,de:08416:11000:14:G,Tübingen Hauptbahnhof,2025-11-08 21:06,2025-11-08 21:06,18,Hirschau Volksbank,Bstg. G,tub:33018::H:j25:227,2025-11-08,0.0,48.51624,9.05388,2025-11-08 20:30,6.5,0.0,,,,,84,,clear-night,64012,Rottenburg-Kiebingen
de:08416:11000,de:08416:11000:14:G,Tübingen Hauptbahnhof,2025-11-08 21:36,,18,Oberndorf Feuersee,Bstg. G,tub:33018::H:j25:190,2025-11-08,,48.51624,9.05388,2025-11-08 20:30,6.5,0.0,,,,,84,,clear-night,64012,Rottenburg-Kiebingen
de:08416:11000,de:08416:11000:14:G,Tübingen Hauptbahnhof,2025-11-08 22:06,2025-11-08 22:06,18,Hirschau Volksbank,Bstg. G,tub:33018::H:j25:228,2025-11-08,0.0,48.51624,9.05388,2025-11-08 20:30,6.5,0.0,,,,,84,,clear-night,64012,Rottenburg-Kiebingen
de:08416:11000,de:08416:11000:14:G,Tübingen Hauptbahnhof,2025-11-08 22:36,,18,Rottenburg E.-Bolz-Platz,Bstg. G,tub:33018::H:j25:205,2025-11-08,,48.51624,9.05388,2025-11-08 20:30,6.5,0.0,,,,,84,,clear-night,64012,Rottenburg-Kiebingen
de:08416:11000,de:08416:11000:14:G,Tübingen Hauptbahnhof,2025-11-08 23:06,,18,Hirschau Kirchplatz,Bstg. G,tub:33018::H:j25:199,2025-11-08,,48.51624,9.05388,2025-11-08 20:30,6.5,0.0,,,,,84,,clear-night,64012,Rottenburg-Kiebingen
de:08416:11000,de:08416:11000:14:G,Tübingen Hauptbahnhof,2025-11-08 23:36,,18,Oberndorf Feuersee,Bstg. G,tub:33018::H:j25:192,2025-11-08,,48.51624,9.05388,2025-11-08 20:30,6.5,0.0,,,,,84,,clear-night,64012,Rottenburg-Kiebingen
de:08416:11000,de:08416:11000:14:G,Tübingen Hauptbahnhof,2025-11-09 00:32,,N98,Tübingen Hauptbahnhof,Bstg. G,tub:09098::H:j25:1,2025-11-09,,48.51624,9.05388,2025-11-08 20:30,6.5,0.0,,,,,84,,clear-night,64012,Rottenburg-Kiebingen
de:08416:11000,de:08416:11000:14:G,Tübingen Hauptbahnhof,2025-11-09 01:32,,N98,Tübingen Hauptbahnhof,Bstg. G,tub:09098::H:j25:2,2025-11-09,,48.51624,9.05388,2025-11-08 20:30,6.5,0.0,,,,,84,,clear-night,64012,Rottenburg-Kiebingen
de:08416:11000,de:08416:11000:14:G,Tübingen Hauptbahnhof,2025-11-09 02:31,,N80,Herrenberg,Bstg. G,rab:24795::H:25a:2,2025-11-09,,48.51624,9.05388,2025-11-08 20:30,6.5,0.0,,,,,84,,clear-night,64012,Rottenburg-Kiebingen
de:08416:11000,de:08416:11000:14:G,Tübingen Hauptbahnhof,2025-11-09 02:32,,N98,Tübingen Hauptbahnhof,Bstg. G,tub:09098::H:j25:3,2025-11-09,,48.51624,9.05388,2025-11-08 20:30,6.5,0.0,,,,,84,,clear-night,64012,Rottenburg-Kiebingen
de:08416:11000,de:08416:11000:13:M,Tübingen Hauptbahnhof,2025-11-08 21:12,,X82,Echterdingen Flughafen/Messe (SAB),Bstg. M,vvs:31X82::R:j25:42,2025-11-08,,48.51624,9.05388,2025-11-08 20:30,6.5,0.0,,,,,84,,clear-night,64012,Rottenburg-Kiebingen
de:08416:11000,de:08416:11000:13:M,Tübingen Hauptbahnhof,2025-11-08 21:32,,828,Echterdingen Flughafen/Messe (SAB),Bstg. M,vvs:31828::R:j25:222,2025-11-08,,48.51624,9.05388,2025-11-08 20:30,6.5,0.0,,,,,84,,clear-night,64012,Rottenburg-Kiebingen
de:08416:11000,de:08416:11000:13:M,Tübingen Hauptbahnhof,2025-11-08 22:12,,X82,Echterdingen Flughafen/Messe (SAB),Bstg. M,vvs:31X82::R:j25:43,2025-11-08,,48.51624,9.05388,2025-11-08 20:30,6.5,0.0,,,,,84,,clear-night,64012,Rottenburg-Kiebingen
de:08416:11000,de:08416:11000:13:M,Tübingen Hauptbahnhof,2025-11-08 22:32,,828,Echterdingen Flughafen/Messe (SAB),Bstg. M,vvs:31828::R:j25:223,2025-11-08,,48.51624,9.05388,2025-11-08 20:30,6.5,0.0,,,,,84,,clear-night,64012,Rottenburg-Kiebingen
de:08416:11000,de:08416:11000:13:M,Tübingen Hauptbahnhof,2025-11-08 23:12,,X82,Echterdingen Flughafen/Messe (SAB),Bstg. M,vvs:31X82::R:j25:44,2025-11-08,,48.51624,9.05388,2025-11-08 20:30,6.5,0.0,,,,,84,,clear-night,64012,Rottenburg-Kiebingen
de:08416:11000,de:08416:11000:13:M,Tübingen Hauptbahnhof,2025-11-08 23:32,,828,Echterdingen Flughafen/Messe (SAB),Bstg. M,vvs:31828::R:j25:224,2025-11-08,,48.51624,9.05388,2025-11-08 20:30,6.5,0.0,,,,,84,,clear-night,64012,Rottenburg-Kiebingen
de:08416:11000,de:08416:11000:13:M,Tübingen Hauptbahnhof,2025-11-08 23:55,,X82,Echterdingen Flughafen/Messe (SAB),Bstg. M,vvs:31X82::R:j25:45,2025-11-08,,48.51624,9.05388,2025-11-08 20:30,6.5,0.0,,,,,84,,clear-night,64012,Rottenburg-Kiebingen
de:08416:11000,de:08416:11000:13:M,Tübingen Hauptbahnhof,2025-11-09 00:55,,X82,Echterdingen Flughafen/Messe (SAB),Bstg. M,vvs:31X82::R:j25:46,2025-11-09,,48.51624,9.05388,2025-11-08 20:30,6.5,0.0,,,,,84,,clear-night,64012,Rottenburg-Kiebingen
de:08416:11000,de:08416:11000:13:M,Tübingen Hauptbahnhof,2025-11-09 01:55,,X82,Echterdingen Flughafen/Messe (SAB),Bstg. M,vvs:31X82::R:j25:47,2025-11-09,,48.51624,9.05388,2025-11-08 20:30,6.5,0.0,,,,,84,,clear-night,64012,Rottenburg-Kiebingen
de:08416:11000,de:08416:11000:13:M,Tübingen Hauptbahnhof,2025-11-09 02:55,,X82,Echterdingen Flughafen/Messe (SAB),Bstg. M,vvs:31X82::R:j25:48,2025-11-09,,48.51624,9.05388,2025-11-08 20:30,6.5,0.0,,,,,84,,clear-night,64012,Rottenburg-Kiebingen
de:08416:11000,de:08416:11000:4:6,Tübingen Hauptbahnhof,2025-11-08 21:33,,RB 66,Ebingen Bahnhof,6,ddb:90T66::H:j25:64,2025-11-08,,48.51624,9.05388,2025-11-08 20:30,6.5,0.0,,,,,84,,clear-night,64012,Rottenburg-Kiebingen
de:08416:11000,de:08416:11000:4:6,Tübingen Hauptbahnhof,2025-11-08 22:33,,RB 66,Ebingen Bahnhof,6,ddb:90T66::H:j25:67,2025-11-08,,48.51624,9.05388,2025-11-08 20:30,6.5,0.0,,,,,84,,clear-night,64012,Rottenburg-Kiebingen
de:08416:11000,de:08416:11000:4:6,Tübingen Hauptbahnhof,2025-11-08 23:33,,RB 66,Ebingen Bahnhof,6,ddb:90T66::H:j25:72,2025-11-08,,48.51624,9.05388,2025-11-08 20:30,6.5,0.0,,,,,84,,clear-night,64012,Rottenburg-Kiebingen
de:08416:11000,de:08416:11000:4:6,Tübingen Hauptbahnhof,2025-11-09 00:33,,RB 66,Hechingen Bf/ZOB,6,ddb:90T66::H:j25:74,2025-11-09,,48.51624,9.05388,2025-11-08 20:30,6.5,0.0,,,,,84,,clear-night,64012,Rottenburg-Kiebingen
de:08416:11000,de:08416:11000:4:6,Tübingen Hauptbahnhof,2025-11-09 05:55,,RB 66,Ebingen Bahnhof,6,ddb:90T66::H:j25:7,2025-11-09,,48.51624,9.05388,2025-11-08 20:30,6.5,0.0,,,,,84,,clear-night,64012,Rottenburg-Kiebingen
de:08416:11000,de:08416:11000:4:6,Tübingen Hauptbahnhof,2025-11-09 08:29,,RB 66,Hechingen Bf/ZOB,6,ddb:90T66::H:j25:17,2025-11-09,,48.51624,9.05388,2025-11-08 20:30,6.5,0.0,,,,,84,,clear-night,64012,Rottenburg-Kiebingen
de:08416:11000,de:08416:11000:4:6,Tübingen Hauptbahnhof,2025-11-09 09:29,,RB 66,Sigmaringen Bahnhof,6,ddb:90T66::H:j25:21,2025-11-09,,48.51624,9.05388,2025-11-08 20:30,6.5,0.0,,,,,84,,clear-night,64012,Rottenburg-Kiebingen
de:08416:11000,de:08416:11000:4:6,Tübingen Hauptbahnhof,2025-11-09 10:05,,MEX12,Heilbronn Hauptbahnhof,6,ddb:90T12:S:R:j25:478,2025-11-09,,48.51624,9.05388,2025-11-08 20:30,6.5,0.0,,,,,84,,clear-night,64012,Rottenburg-Kiebingen
de:08416:11000,de:08416:11000:4:6,Tübingen Hauptbahnhof,2025-11-09 10:29,,RB 66,Hechingen Bf/ZOB,6,ddb:90T66::H:j25:23,2025-11-09,,48.51624,9.05388,2025-11-08 20:30,6.5,0.0,,,,,84,,clear-night,64012,Rottenburg-Kiebingen
de:08416:11000,de:08416:11000:4:6,Tübingen Hauptbahnhof,2025-11-09 11:29,,RB 66,Sigmaringen Bahnhof,6,ddb:90T66::H:j25:29,2025-11-09,,48.51624,9.05388,2025-11-08 20:30,6.5,0.0,,,,,84,,clear-night,64012,Rottenburg-Kiebingen
de:08416:11000,de:08416:11000:15:N,Tübingen Hauptbahnhof,2025-11-08 21:35,2025-11-08 21:35,7625,Gomaringen Ziegelgrubenstr.,Bstg. N,tub:80625::H:j25:153,2025-11-08,0.0,48.51624,9.05388,2025-11-08 20:30,6.5,0.0,,,,,84,,clear-night,64012,Rottenburg-Kiebingen
de:08416:11000,de:08416:11000:15:N,Tübingen Hauptbahnhof,2025-11-08 22:35,2025-11-08 22:35,7625,Gomaringen Ziegelgrubenstr.,Bstg. N,tub:80625::H:j25:155,2025-11-08,0.0,48.51624,9.05388,2025-11-08 20:30,6.5,0.0,,,,,84,,clear-night,64012,Rottenburg-Kiebingen
de:08416:11000,de:08416:11000:15:N,Tübingen Hauptbahnhof,2025-11-08 23:35,,7625,Gomaringen Ziegelgrubenstr.,Bstg. N,tub:80625::H:j25:157,2025-11-08,,48.51624,9.05388,2025-11-08 20:30,6.5,0.0,,,,,84,,clear-night,64012,Rottenburg-Kiebingen
de:08416:11000,de:08416:11000:15:N,Tübingen Hauptbahnhof,2025-11-09 01:00,,N84,Tübingen Hauptbahnhof,Bstg. N,tub:80N84::H:j25:1,2025-11-09,,48.51624,9.05388,2025-11-08 20:30,6.5,0.0,,,,,84,,clear-night,64012,Rottenburg-Kiebingen
de:08416:11000,de:08416:11000:15:N,Tübingen Hauptbahnhof,2025-11-09 02:00,,N84,Tübingen Hauptbahnhof,Bstg. N,tub:80N84::H:j25:2,2025-11-09,,48.51624,9.05388,2025-11-08 20:30,6.5,0.0,,,,,84,,clear-night,64012,Rottenburg-Kiebingen
de:08416:11000,de:08416:11000:15:N,Tübingen Hauptbahnhof,2025-11-09 03:00,,N84,Tübingen Hauptbahnhof,Bstg. N,tub:80N84::H:j25:3,2025-11-09,,48.51624,9.05388,2025-11-08 20:30,6.5,0.0,,,,,84,,clear-night,64012,Rottenburg-Kiebingen
de:08416:11000,de:08416:11000:15:N,Tübingen Hauptbahnhof,2025-11-09 05:35,,7625,Gomaringen ZOB,Bstg. N,tub:80625:t:H:j25:4,2025-11-09,,48.51624,9.05388,2025-11-08 20:30,6.5,0.0,,,,,84,,clear-night,64012,Rottenburg-Kiebingen
de:08416:11000,de:08416:11000:15:N,Tübingen Hauptbahnhof,2025-11-09 06:35,,7625,Gomaringen ZOB,Bstg. N,tub:80625:t:H:j25:5,2025-11-09,,48.51624,9.05388,2025-11-08 20:30,6.5,0.0,,,,,84,,clear-night,64012,Rottenburg-Kiebingen
de:08416:11000,de:08416:11000:15:N,Tübingen Hauptbahnhof,2025-11-09 07:35,,7625,Gomaringen ZOB,Bstg. N,tub:80625:t:H:j25:6,2025-11-09,,48.51624,9.05388,2025-11-08 20:30,6.5,0.0,,,,,84,,clear-night,64012,Rottenburg-Kiebingen
de:08416:11000,de:08416:11000:15:N,Tübingen Hauptbahnhof,2025-11-09 08:35,,7625,Gomaringen ZOB,Bstg. N,tub:80625::H:j25:109,2025-11-09,,48.51624,9.05388,2025-11-08 20:30,6.5,0.0,,,,,84,,clear-night,64012,Rottenburg-Kiebingen
de:08416:11000,de:08416:11000:13:L,Tübingen Hauptbahnhof,2025-11-08 21:37,,7611,Jettenburg Brunnenplatz,Bstg. L,tub:34611::H:j25:146,2025-11-08,,48.51624,9.05388,2025-11-08 20:30,6.5,0.0,,,,,84,,clear-night,64012,Rottenburg-Kiebingen
de:08416:11000,de:08416:11000:13:L,Tübingen Hauptbahnhof,2025-11-08 22:37,,7611,Jettenburg Brunnenplatz,Bstg. L,tub:34611::H:j25:147,2025-11-08,,48.51624,9.05388,2025-11-08 20:30,6.5,0.0,,,,,84,,clear-night,64012,Rottenburg-Kiebingen
de:08416:11000,de:08416:11000:13:L,Tübingen Hauptbahnhof,2025-11-08 23:37,,7611,Jettenburg Brunnenplatz,Bstg. L,tub:34611::H:j25:148,2025-11-08,,48.51624,9.05388,2025-11-08 20:30,6.5,0.0,,,,,84,,clear-night,64012,Rottenburg-Kiebingen
de:08416:11000,de:08416:11000:13:L,Tübingen Hauptbahnhof,2025-11-09 00:30,,7611,Jettenburg Brunnenplatz,Bstg. L,tub:34611::H:j25:149,2025-11-09,,48.51624,9.05388,2025-11-08 20:30,6.5,0.0,,,,,84,,clear-night,64012,Rottenburg-Kiebingen
de:08416:11000,de:08416:11000:13:L,Tübingen Hauptbahnhof,2025-11-09 01:00,,N82,K'furt Südring Berg,Bstg. L,tub:97N82::H:j25:1,2025-11-09,,48.51624,9.05388,2025-11-08 20:30,6.5,0.0,,,,,84,,clear-night,64012,Rottenburg-Kiebingen
de:08416:11000,de:08416:11000:13:L,Tübingen Hauptbahnhof,2025-11-09 01:00,,N81,Reutlingen Stadtmitte,Bstg. L,tub:34N81::H:j25:1,2025-11-09,,48.51624,9.05388,2025-11-08 20:30,6.5,0.0,,,,,84,,clear-night,64012,Rottenburg-Kiebingen
de:08416:11000,de:08416:11000:13:L,Tübingen Hauptbahnhof,2025-11-09 02:00,,N81,Reutlingen Stadtmitte,Bstg. L,tub:34N81::H:j25:2,2025-11-09,,48.51624,9.05388,2025-11-08 20:30,6.5,0.0,,,,,84,,clear-night,64012,Rottenburg-Kiebingen
de:08416:11000,de:08416:11000:13:L,Tübingen Hauptbahnhof,2025-11-09 02:00,,N82,K'furt Südring Berg,Bstg. L,tub:97N82::H:j25:2,2025-11-09,,48.51624,9.05388,2025-11-08 20:30,6.5,0.0,,,,,84,,clear-night,64012,Rottenburg-Kiebingen
de:08416:11000,de:08416:11000:13:L,Tübingen Hauptbahnhof,2025-11-09 03:00,,N81,Reutlingen Stadtmitte,Bstg. L,tub:34N81::H:j25:3,2025-11-09,,48.51624,9.05388,2025-11-08 20:30,6.5,0.0,,,,,84,,clear-night,64012,Rottenburg-Kiebingen
de:08416:11000,de:08416:11000:13:L,Tübingen Hauptbahnhof,2025-11-09 03:00,,N82,K'furt Südring Berg,Bstg. L,tub:97N82::H:j25:3,2025-11-09,,48.51624,9.05388,2025-11-08 20:30,6.5,0.0,,,,,84,,clear-night,64012,Rottenburg-Kiebingen
de:08416:11000,de:08416:11000:3:12,Tübingen Hauptbahnhof,2025-11-08 22:34,,RB 74,Horb Bahnhof/ZOB,12,ddb:90T74::R:j25:339,2025-11-08,,48.51624,9.05388,2025-11-08 20:30,6.5,0.0,,,,,84,,clear-night,64012,Rottenburg-Kiebingen
de:08416:11000,de:08416:11000:3:12,Tübingen Hauptbahnhof,2025-11-08 23:33,,RB 74,Horb Bahnhof/ZOB,12,ddb:90T74::R:j25:368,2025-11-08,,48.51624,9.05388,2025-11-08 20:30,6.5,0.0,,,,,84,,clear-night,64012,Rottenburg-Kiebingen
de:08416:11000,de:08416:11000:3:12,Tübingen Hauptbahnhof,2025-11-09 05:33,,RB 74,Rottenburg Bahnhof,12,ddb:90T74::R:j25:349,2025-11-09,,48.51624,9.05388,2025-11-08 20:30,6.5,0.0,,,,,84,,clear-night,64012,Rottenburg-Kiebingen
de:08416:11000,de:08416:11000:3:12,Tübingen Hauptbahnhof,2025-11-09 07:23,,RB 74,Horb Bahnhof/ZOB,12,ddb:90T74::R:j25:341,2025-11-09,,48.51624,9.05388,2025-11-08 20:30,6.5,0.0,,,,,84,,clear-night,64012,Rottenburg-Kiebingen
de:08416:11000,de:08416:11000:3:12,Tübingen Hauptbahnhof,2025-11-09 08:34,,RB 74,Horb Bahnhof/ZOB,12,ddb:90T74::R:j25:301,2025-11-09,,48.51624,9.05388,2025-11-08 20:30,6.5,0.0,,,,,84,,clear-night,64012,Rottenburg-Kiebingen
de:08416:11000,de:08416:11000:3:12,Tübingen Hauptbahnhof,2025-11-09 09:03,,RB 6,Rottenburg Bahnhof,12,ddb:90T06::R:j25:106,2025-11-09,,48.51624,9.05388,2025-11-08 20:30,6.5,0.0,,,,,84,,clear-night,64012,Rottenburg-Kiebingen
de:08416:11000,de:08416:11000:3:12,Tübingen Hauptbahnhof,2025-11-09 11:03,,RB 6,Rottenburg Bahnhof,12,ddb:90T06::R:j25:114,2025-11-09,,48.51624,9.05388,2025-11-08 20:30,6.5,0.0,,,,,84,,clear-night,64012,Rottenburg-Kiebingen
de:08416:11000,de:08416:11000:3:12,Tübingen Hauptbahnhof,2025-11-09 12:34,,RB 74,Horb Bahnhof/ZOB,12,ddb:90T74::R:j25:315,2025-11-09,,48.51624,9.05388,2025-11-08 20:30,6.5,0.0,,,,,84,,clear-night,64012,Rottenburg-Kiebingen
de:08416:11000,de:08416:11000:3:12,Tübingen Hauptbahnhof,2025-11-09 13:03,,RB 6,Rottenburg Bahnhof,12,ddb:90T06::R:j25:116,2025-11-09,,48.51624,9.05388,2025-11-08 20:30,6.5,0.0,,,,,84,,clear-night,64012,Rottenburg-Kiebingen
de:08416:11000,de:08416:11000:3:12,Tübingen Hauptbahnhof,2025-11-09 14:34,,RB 74,Horb Bahnhof/ZOB,12,ddb:90T74::R:j25:322,2025-11-09,,48.51624,9.05388,2025-11-08 20:30,6.5,0.0,,,,,84,,clear-night,64012,Rottenburg-Kiebingen
de:08416:10045,de:08416:10045:0:1,Tübingen Biesingerstraße,2025-11-08 20:38,2025-11-08 20:38,6,Tübingen Hirschauer Straße,,tub:09006::H:j25:253,2025-11-08,0.2,48.51682,9.0437,2025-11-08 20:30,5.4,0.0,,,,,90,,clear-night,64012,Rottenburg-Kiebingen
de:08416:10045,de:08416:10045:0:1,Tübingen Biesingerstraße,2025-11-08 21:08,2025-11-08 21:08,6,Tübingen Hirschauer Straße,,tub:09006::H:j25:254,2025-11-08,0.0,48.51682,9.0437,2025-11-08 20:30,5.4,0.0,,,,,90,,clear-night,64012,Rottenburg-Kiebingen
de:08416:10045,de:08416:10045:0:1,Tübingen Biesingerstraße,2025-11-08 21:38,2025-11-08 21:38,6,Tübingen Hirschauer Straße,,tub:09006::H:j25:255,2025-11-08,0.0,48.51682,9.0437,2025-11-08 20:30,5.4,0.0,,,,,90,,clear-night,64012,Rottenburg-Kiebingen
de:08416:10045,de:08416:10045:0:1,Tübingen Biesingerstraße,2025-11-08 22:08,2025-11-08 22:08,6,Tübingen Hirschauer Straße,,tub:09006::H:j25:256,2025-11-08,0.0,48.51682,9.0437,2025-11-08 20:30,5.4,0.0,,,,,90,,clear-night,64012,Rottenburg-Kiebingen
de:08416:10045,de:08416:10045:0:1,Tübingen Biesingerstraße,2025-11-08 22:38,,6,Tübingen Hirschauer Straße,,tub:09006::H:j25:257,2025-11-08,,48.51682,9.0437,2025-11-08 20:30,5.4,0.0,,,,,90,,clear-night,64012,Rottenburg-Kiebingen
de:08416:10045,de:08416:10045:0:1,Tübingen Biesingerstraße,2025-11-08 23:08,,6,Tübingen Hirschauer Straße,,tub:09006::H:j25:258,2025-11-08,,48.51682,9.0437,2025-11-08 20:30,5.4,0.0,,,,,90,,clear-night,64012,Rottenburg-Kiebingen
de:08416:10045,de:08416:10045:0:1,Tübingen Biesingerstraße,2025-11-08 23:38,,6,Tübingen Hirschauer Straße,,tub:09006::H:j25:259,2025-11-08,,48.51682,9.0437,2025-11-08 20:30,5.4,0.0,,,,,90,,clear-night,64012,Rottenburg-Kiebingen
de:08416:10045,de:08416:10045:0:1,Tübingen Biesingerstraße,2025-11-09 00:08,,6,Tübingen Hirschauer Straße,,tub:09006::H:j25:260,2025-11-09,,48.51682,9.0437,2025-11-08 20:30,5.4,0.0,,,,,90,,clear-night,64012,Rottenburg-Kiebingen
de:08416:10045,de:08416:10045:0:1,Tübingen Biesingerstraße,2025-11-09 06:38,,6,Tübingen Hirschauer Straße,,tub:09006::H:j25:261,2025-11-09,,48.51682,9.0437,2025-11-08 20:30,5.4,0.0,,,,,90,,clear-night,64012,Rottenburg-Kiebingen
de:08416:10045,de:08416:10045:0:1,Tübingen Biesingerstraße,2025-11-09 07:38,,6,Tübingen Hirschauer Straße,,tub:09006::H:j25:262,2025-11-09,,48.51682,9.0437,2025-11-08 20:30,5.4,0.0,,,,,90,,clear-night,64012,Rottenburg-Kiebingen
de:08416:10045,de:08416:10045:0:4,Tübingen Biesingerstraße,2025-11-08 20:43,2025-11-08 20:43,6,Tübingen Hauptbahnhof,,tub:09006::R:j25:65,2025-11-08,0.2,48.51682,9.0437,2025-11-08 20:30,5.4,0.0,,,,,90,,clear-night,64012,Rottenburg-Kiebingen
de:08416:10045,de:08416:10045:0:4,Tübingen Biesingerstraße,2025-11-08 21:13,2025-11-08 21:13,6,Tübingen Hauptbahnhof,,tub:09006::R:j25:66,2025-11-08,0.0,48.51682,9.0437,2025-11-08 20:30,5.4,0.0,,,,,90,,clear-night,64012,Rottenburg-Kiebingen
de:08416:10045,de:08416:10045:0:4,Tübingen Biesingerstraße,2025-11-08 21:43,2025-11-08 21:43,6,Tübingen Hauptbahnhof,,tub:09006::R:j25:67,2025-11-08,0.0,48.51682,9.0437,2025-11-08 20:30,5.4,0.0,,,,,90,,clear-night,64012,Rottenburg-Kiebingen
de:08416:10045,de:08416:10045:0:4,Tübingen Biesingerstraße,2025-11-08 22:13,,6,Tübingen Hauptbahnhof,,tub:09006::R:j25:68,2025-11-08,,48.51682,9.0437,2025-11-08 20:30,5.4,0.0,,,,,90,,clear-night,64012,Rottenburg-Kiebingen
de:08416:10045,de:08416:10045:0:4,Tübingen Biesingerstraße,2025-11-08 22:43,,6,Tübingen Hauptbahnhof,,tub:09006::R:j25:69,2025-11-08,,48.51682,9.0437,2025-11-08 20:30,5.4,0.0,,,,,90,,clear-night,64012,Rottenburg-Kiebingen
de:08416:10045,de:08416:10045:0:4,Tübingen Biesingerstraße,2025-11-08 23:13,,6,Tübingen Hauptbahnhof,,tub:09006::R:j25:70,2025-11-08,,48.51682,9.0437,2025-11-08 20:30,5.4,0.0,,,,,90,,clear-night,64012,Rottenburg-Kiebingen
de:08416:10045,de:08416:10045:0:4,Tübingen Biesingerstraße,2025-11-08 23:43,,6,Tübingen Hauptbahnhof,,tub:09006::R:j25:71,2025-11-08,,48.51682,9.0437,2025-11-08 20:30,5.4,0.0,,,,,90,,clear-night,64012,Rottenburg-Kiebingen
de:08416:10045,de:08416:10045:0:4,Tübingen Biesingerstraße,2025-11-09 00:13,,6,Tübingen Hauptbahnhof,,tub:09006::R:j25:72,2025-11-09,,48.51682,9.0437,2025-11-08 20:30,5.4,0.0,,,,,90,,clear-night,64012,Rottenburg-Kiebingen
de:08416:10045,de:08416:10045:0:4,Tübingen Biesingerstraße,2025-11-09 06:43,,6,Tübingen Hauptbahnhof,,tub:09006::R:j25:73,2025-11-09,,48.51682,9.0437,2025-11-08 20:30,5.4,0.0,,,,,90,,clear-night,64012,Rottenburg-Kiebingen
de:08416:10045,de:08416:10045:0:4,Tübingen Biesingerstraße,2025-11-09 07:43,,6,Tübingen Hauptbahnhof,,tub:09006::R:j25:74,2025-11-09,,48.51682,9.0437,2025-11-08 20:30,5.4,0.0,,,,,90,,clear-night,64012,Rottenburg-Kiebingen
de:08416:10014,de:08416:10014:2:8,Tübingen Haagtor,2025-11-08 20:39,2025-11-08 20:42,9,Tübingen Bismarckturm,,tub:09009::R:j25:34,2025-11-08,2.8,48.52071,9.04877,2025-11-08 20:30,6.5,0.0,,,,,84,,clear-night,64012,Rottenburg-Kiebingen
de:08416:10014,de:08416:10014:2:8,Tübingen Haagtor,2025-11-08 21:39,2025-11-08 21:39,9,Tübingen Bismarckturm,,tub:09009::R:j25:35,2025-11-08,0.0,48.52071,9.04877,2025-11-08 20:30,6.5,0.0,,,,,84,,clear-night,64012,Rottenburg-Kiebingen
de:08416:10014,de:08416:10014:2:8,Tübingen Haagtor,2025-11-08 22:39,,9,Tübingen Bismarckturm,,tub:09009::R:j25:36,2025-11-08,,48.52071,9.04877,2025-11-08 20:30,6.5,0.0,,,,,84,,clear-night,64012,Rottenburg-Kiebingen
de:08416:10014,de:08416:10014:2:8,Tübingen Haagtor,2025-11-08 23:39,,9,Tübingen Bismarckturm,,tub:09009::R:j25:37,2025-11-08,,48.52071,9.04877,2025-11-08 20:30,6.5,0.0,,,,,84,,clear-night,64012,Rottenburg-Kiebingen
de:08416:10014,de:08416:10014:2:8,Tübingen Haagtor,2025-11-09 01:07,,N90,Tübingen Hauptbahnhof,,tub:09090::H:j25:2,2025-11-09,,48.52071,9.04877,2025-11-08 20:30,6.5,0.0,,,,,84,,clear-night,64012,Rottenburg-Kiebingen
de:08416:10014,de:08416:10014:2:8,Tübingen Haagtor,2025-11-09 02:07,,N90,Tübingen Hauptbahnhof,,tub:09090::H:j25:4,2025-11-09,,48.52071,9.04877,2025-11-08 20:30,6.5,0.0,,,,,84,,clear-night,64012,Rottenburg-Kiebingen
de:08416:10014,de:08416:10014:2:8,Tübingen Haagtor,2025-11-09 03:07,,N90,Tübingen Hauptbahnhof,,tub:09090::H:j25:6,2025-11-09,,48.52071,9.04877,2025-11-08 20:30,6.5,0.0,,,,,84,,clear-night,64012,Rottenburg-Kiebingen
de:08416:10014,de:08416:10014:2:8,Tübingen Haagtor,2025-11-09 04:07,,N90,Tübingen Hauptbahnhof,,tub:09090::H:j25:8,2025-11-09,,48.52071,9.04877,2025-11-08 20:30,6.5,0.0,,,,,84,,clear-night,64012,Rottenburg-Kiebingen
de:08416:10014,de:08416:10014:2:8,Tübingen Haagtor,2025-11-09 06:39,,9,Tübingen Bismarckturm,,tub:09009::R:j25:38,2025-11-09,,48.52071,9.04877,2025-11-08 20:30,6.5,0.0,,,,,84,,clear-night,64012,Rottenburg-Kiebingen
de:08416:10014,de:08416:10014:2:8,Tübingen Haagtor,2025-11-09 07:39,,9,Tübingen Bismarckturm,,tub:09009::R:j25:39,2025-11-09,,48.52071,9.04877,2025-11-08 20:30,6.5,0.0,,,,,84,,clear-night,64012,Rottenburg-Kiebingen
de:08416:10014,de:08416:10014:1:4,Tübingen Haagtor,2025-11-08 20:52,2025-11-08 20:52,9,Tübingen Hauptbahnhof,,tub:09009::H:j25:89,2025-11-08,0.0,48.52071,9.04877,2025-11-08 20:30,6.5,0.0,,,,,84,,clear-night,64012,Rottenburg-Kiebingen
de:08416:10014,de:08416:10014:1:4,Tübingen Haagtor,2025-11-08 21:23,2025-11-08 21:23,11,Tübingen Schwärzlocher Str. 45,,tub:09011::R:j25:67,2025-11-08,0.0,48.52071,9.04877,2025-11-08 20:30,6.5,0.0,,,,,84,,clear-night,64012,Rottenburg-Kiebingen
de:08416:10014,de:08416:10014:1:4,Tübingen Haagtor,2025-11-08 21:23,,11,Tübingen Hauptbahnhof,,tub:09011::H:j25:175,2025-11-08,,48.52071,9.04877,2025-11-08 20:30,6.5,0.0,,,,,84,,clear-night,64012,Rottenburg-Kiebingen
de:08416:10014,de:08416:10014:1:4,Tübingen Haagtor,2025-11-08 21:52,2025-11-08 21:52,9,Tübingen Hauptbahnhof,,tub:09009::H:j25:90,2025-11-08,0.0,48.52071,9.04877,2025-11-08 20:30,6.5,0.0,,,,,84,,clear-night,64012,Rottenburg-Kiebingen
de:08416:10014,de:08416:10014:1:4,Tübingen Haagtor,2025-11-08 22:23,,11,Tübingen Hauptbahnhof,,tub:09011::H:j25:177,2025-11-08,,48.52071,9.04877,2025-11-08 20:30,6.5,0.0,,,,,84,,clear-night,64012,Rottenburg-Kiebingen
de:08416:10014,de:08416:10014:1:4,Tübingen Haagtor,2025-11-08 22:52,,9,Tübingen Hauptbahnhof,,tub:09009::H:j25:91,2025-11-08,,48.52071,9.04877,2025-11-08 20:30,6.5,0.0,,,,,84,,clear-night,64012,Rottenburg-Kiebingen
de:08416:10014,de:08416:10014:1:4,Tübingen Haagtor,2025-11-08 23:23,,11,Tübingen Hauptbahnhof,,tub:09011::H:j25:179,2025-11-08,,48.52071,9.04877,2025-11-08 20:30,6.5,0.0,,,,,84,,clear-night,64012,Rottenburg-Kiebingen
de:08416:10014,de:08416:10014:1:4,Tübingen Haagtor,2025-11-08 23:52,,9,Tübingen Hauptbahnhof,,tub:09009::H:j25:92,2025-11-08,,48.52071,9.04877,2025-11-08 20:30,6.5,0.0,,,,,84,,clear-night,64012,Rottenburg-Kiebingen
de:08416:10014,de:08416:10014:1:4,Tübingen Haagtor,2025-11-09 01:15,,N90,Tübingen Hauptbahnhof,,tub:09090::H:j25:2,2025-11-09,,48.52071,9.04877,2025-11-08 20:30,6.5,0.0,,,,,84,,clear-night,64012,Rottenburg-Kiebingen
de:08416:10014,de:08416:10014:1:4,Tübingen Haagtor,2025-11-09 01:22,,N90,Tübingen Hauptbahnhof,,tub:09090::H:j25:2,2025-11-09,,48.52071,9.04877,2025-11-08 20:30,6.5,0.0,,,,,84,,clear-night,64012,Rottenburg-Kiebingen
de:08416:10501,de:08416:10501:0:4,Tübingen Neckarbrücke,2025-11-08 20:45,2025-11-08 20:45,1,Tübingen Hauptbahnhof,,tub:09001::H:j25:210,2025-11-08,0.0,48.51863,9.05795,2025-11-08 20:30,6.5,0.0,,,,,84,,clear-night,64012,Rottenburg-Kiebingen
de:08416:10501,de:08416:10501:0:4,Tübingen Neckarbrücke,2025-11-08 20:51,2025-11-08 20:51,10,Tübingen Hauptbahnhof,,tub:09010::H:j25:70,2025-11-08,0.6,48.51863,9.05795,2025-11-08 20:30,6.5,0.0,,,,,84,,clear-night,64012,Rottenburg-Kiebingen
de:08416:10501,de:08416:10501:0:4,Tübingen Neckarbrücke,2025-11-08 20:51,2025-11-08 20:51,5,Tübingen Derend. Käppele,,tub:09005::H:j25:875,2025-11-08,0.0,48.51863,9.05795,2025-11-08 20:30,6.5,0.0,,,,,84,,clear-night,64012,Rottenburg-Kiebingen
de:08416:10501,de:08416:10501:0:4,Tübingen Neckarbrücke,2025-11-08 20:52,2025-11-08 20:52,8,Tübingen Hauptbahnhof,,tub:09008::H:j25:183,2025-11-08,0.0,48.51863,9.05795,2025-11-08 20:30,6.5,0.0,,,,,84,,clear-night,64012,Rottenburg-Kiebingen
de:08416:10501,de:08416:10501:0:4,Tübingen Neckarbrücke,2025-11-08 20:52,2025-11-08 20:53,2,Tübingen Hauptbahnhof,,tub:09002::H:j25:369,2025-11-08,0.4,48.51863,9.05795,2025-11-08 20:30,6.5,0.0,,,,,84,,clear-night,64012,Rottenburg-Kiebingen
de:08416:10501,de:08416:10501:0:4,Tübingen Neckarbrücke,2025-11-08 20:55,2025-11-08 20:55,22,Tübingen Hauptbahnhof,,tub:09022::R:j25:68,2025-11-08,0.0,48.51863,9.05795,2025-11-08 20:30,6.5,0.0,,,,,84,,clear-night,64012,Rottenburg-Kiebingen
de:08416:10501,de:08416:10501:0:4,Tübingen Neckarbrücke,2025-11-08 20:56,2025-11-08 20:56,9,Tübingen Hauptbahnhof,,tub:09009::H:j25:89,2025-11-08,0.0,48.51863,9.05795,2025-11-08 20:30,6.5,0.0,,,,,84,,clear-night,64012,Rottenburg-Kiebingen
de:08416:10501,de:08416:10501:0:4,Tübingen Neckarbrücke,2025-11-08 20:58,2025-11-08 20:58,4,Tübingen Wennf. Garten,,tub:09004::H:j25:502,2025-11-08,0.0,48.51863,9.05795,2025-11-08 20:30,6.5,0.0,,,,,84,,clear-night,64012,Rottenburg-Kiebingen
de:08416:10501,de:08416:10501:0:4,Tübingen Neckarbrücke,2025-11-08 21:06,2025-11-08 21:06,5,Tübingen Hauptbahnhof,,tub:09005::H:j25:878,2025-11-08,0.0,48.51863,9.05795,2025-11-08 20:30,6.5,0.0,,,,,84,,clear-night,64012,Rottenburg-Kiebingen
de:08416:10501,de:08416:10501:0:3,Tübingen Neckarbrücke,2025-11-08 20:48,2025-11-08 20:48,3,Tübingen WHO Ulmenweg,,tub:09003::R:j25:330,2025-11-08,0.0,48.51863,9.05795,2025-11-08 20:30,6.5,0.0,,,,,84,,clear-night,64012,Rottenburg-Kiebingen
de:08416:10501,de:08416:10501:0:3,Tübingen Neckarbrücke,2025-11-08 20:49,2025-11-08 20:49,5,Tübingen WHO Ahornweg,,tub:09005::R:j25:343,2025-11-08,0.0,48.51863,9.05795,2025-11-08 20:30,6.5,0.0,,,,,84,,clear-night,64012,Rottenburg-Kiebingen
de:08416:10501,de:08416:10501:0:3,Tübingen Neckarbrücke,2025-11-08 20:49,2025-11-08 20:49,6,Tübingen Sand Drosselweg,,tub:09006::R:j25:137,2025-11-08,0.0,48.51863,9.05795,2025-11-08 20:30,6.5,0.0,,,,,84,,clear-night,64012,Rottenburg-Kiebingen
de:08416:10501,de:08416:10501:0:3,Tübingen Neckarbrücke,2025-11-08 20:58,2025-11-08 20:58,4,Tübingen WHO Ulmenweg,,tub:09004::R:j25:206,2025-11-08,0.0,48.51863,9.05795,2025-11-08 20:30,6.5,0.0,,,,,84,,clear-night,64012,Rottenburg-Kiebingen
de:08416:10501,de:08416:10501:0:3,Tübingen Neckarbrücke,2025-11-08 21:04,2025-11-08 21:04,2,Tübingen WHO Ulmenweg,,tub:09002::R:j25:135,2025-11-08,0.0,48.51863,9.05795,2025-11-08 20:30,6.5,0.0,,,,,84,,clear-night,64012,Rottenburg-Kiebingen
de:08416:10501,de:08416:10501:0:3,Tübingen Neckarbrücke,2025-11-08 21:04,2025-11-08 21:04,5,Tübingen WHO Ahornweg,,tub:09005::R:j25:344,2025-11-08,0.0,48.51863,9.05795,2025-11-08 20:30,6.5,0.0,,,,,84,,clear-night,64012,Rottenburg-Kiebingen
de:08416:10501,de:08416:10501:0:3,Tübingen Neckarbrücke,2025-11-08 21:18,2025-11-08 21:18,3,Tübingen WHO Ulmenweg,,tub:09003::R:j25:332,2025-11-08,0.0,48.51863,9.05795,2025-11-08 20:30,6.5,0.0,,,,,84,,clear-night,64012,Rottenburg-Kiebingen
de:08416:10501,de:08416:10501:0:3,Tübingen Neckarbrücke,2025-11-08 21:19,2025-11-08 21:19,5,Tübingen WHO Ahornweg,,tub:09005::R:j25:347,2025-11-08,0.0,48.51863,9.05795,2025-11-08 20:30,6.5,0.0,,,,,84,,clear-night,64012,Rottenburg-Kiebingen
de:08416:10501,de:08416:10501:0:3,Tübingen Neckarbrücke,2025-11-08 21:28,2025-11-08 21:28,4,Tübingen WHO Ulmenweg,,tub:09004::R:j25:208,2025-11-08,0.0,48.51863,9.05795,2025-11-08 20:30,6.5,0.0,,,,,84,,clear-night,64012,Rottenburg-Kiebingen
de:08416:10501,de:08416:10501:0:3,Tübingen Neckarbrücke,2025-11-08 21:34,2025-11-08 21:34,2,Tübingen WHO Ulmenweg,,tub:09002::R:j25:136,2025-11-08,0.0,48.51863,9.05795,2025-11-08 20:30,6.5,0.0,,,,,84,,clear-night,64012,Rottenburg-Kiebingen
de:08416:10499,de:08416:10499:0:4,Tübingen Mühlstraße,2025-11-08 20:54,2025-11-08 20:54,22,Tübingen Hauptbahnhof,,tub:09022::R:j25:68,2025-11-08,0.0,48.51948,9.05861,2025-11-08 20:30,6.5,0.0,,,,,84,,clear-night,64012,Rottenburg-Kiebingen
de:08416:10499,de:08416:10499:0:4,Tübingen Mühlstraße,2025-11-08 21:24,2025-11-08 21:24,22,Tübingen Hauptbahnhof,,tub:09022::R:j25:69,2025-11-08,0.0,48.51948,9.05861,2025-11-08 20:30,6.5,0.0,,,,,84,,clear-night,64012,Rottenburg-Kiebingen
de:08416:10499,de:08416:10499:0:4,Tübingen Mühlstraße,2025-11-08 21:54,2025-11-08 21:54,22,Tübingen Hauptbahnhof,,tub:09022::R:j25:70,2025-11-08,0.0,48.51948,9.05861,2025-11-08 20:30,6.5,0.0,,,,,84,,clear-night,64012,Rottenburg-Kiebingen
de:08416:10499,de:08416:10499:0:4,Tübingen Mühlstraße,2025-11-08 22:24,,22,Tübingen Hauptbahnhof,,tub:09022::R:j25:71,2025-11-08,,48.51948,9.05861,2025-11-08 20:30,6.5,0.0,,,,,84,,clear-night,64012,Rottenburg-Kiebingen
de:08416:10499,de:08416:10499:0:4,Tübingen Mühlstraße,2025-11-08 22:54,,22,Tübingen Hauptbahnhof,,tub:09022::R:j25:72,2025-11-08,,48.51948,9.05861,2025-11-08 20:30,6.5,0.0,,,,,84,,clear-night,64012,Rottenburg-Kiebingen
de:08416:10499,de:08416:10499:0:4,Tübingen Mühlstraße,2025-11-08 23:24,,22,Tübingen Hauptbahnhof,,tub:09022::R:j25:73,2025-11-08,,48.51948,9.05861,2025-11-08 20:30,6.5,0.0,,,,,84,,clear-night,64012,Rottenburg-Kiebingen
de:08416:10499,de:08416:10499:0:4,Tübingen Mühlstraße,2025-11-08 23:54,,22,Tübingen Hauptbahnhof,,tub:09022::R:j25:74,2025-11-08,,48.51948,9.05861,2025-11-08 20:30,6.5,0.0,,,,,84,,clear-night,64012,Rottenburg-Kiebingen
de:08416:10499,de:08416:10499:0:4,Tübingen Mühlstraße,2025-11-09 06:24,,22,Tübingen Hauptbahnhof,,tub:09022::R:j25:75,2025-11-09,,48.51948,9.05861,2025-11-08 20:30,6.5,0.0,,,,,84,,clear-night,64012,Rottenburg-Kiebingen
de:08416:10499,de:08416:10499:0:4,Tübingen Mühlstraße,2025-11-09 06:54,,22,Tübingen Hauptbahnhof,,tub:09022::R:j25:76,2025-11-09,,48.51948,9.05861,2025-11-08 20:30,6.5,0.0,,,,,84,,clear-night,64012,Rottenburg-Kiebingen
de:08416:10499,de:08416:10499:0:4,Tübingen Mühlstraße,2025-11-09 07:24,,22,Tübingen Hauptbahnhof,,tub:09022::R:j25:77,2025-11-09,,48.51948,9.05861,2025-11-08 20:30,6.5,0.0,,,,,84,,clear-night,64012,Rottenburg-Kiebingen
de:08416:10501,de:08416:10501:0:2,Tübingen Neckarbrücke,2025-11-08 20:59,2025-11-08 20:59,22,Tübingen Carlo-Steeb-Str.,,tub:09022::H:j25:179,2025-11-08,0.0,48.51863,9.05795,2025-11-08 20:30,6.5,0.0,,,,,84,,clear-night,64012,Rottenburg-Kiebingen
de:08416:10501,de:08416:10501:0:2,Tübingen Neckarbrücke,2025-11-08 21:03,,11,Tübingen Schwärzlocher Str. 45,,tub:09011::R:j25:67,2025-11-08,,48.51863,9.05795,2025-11-08 20:30,6.5,0.0,,,,,84,,clear-night,64012,Rottenburg-Kiebingen
de:08416:10501,de:08416:10501:0:2,Tübingen Neckarbrücke,2025-11-08 21:05,2025-11-08 21:05,10,Tübingen Schwabstraße,,tub:09010::R:j25:181,2025-11-08,0.0,48.51863,9.05795,2025-11-08 20:30,6.5,0.0,,,,,84,,clear-night,64012,Rottenburg-Kiebingen
de:08416:10501,de:08416:10501:0:2,Tübingen Neckarbrücke,2025-11-08 21:05,2025-11-08 21:05,1,Pfrondorf Lusstraße,,tub:09001::R:j25:778,2025-11-08,0.0,48.51863,9.05795,2025-11-08 20:30,6.5,0.0,,,,,84,,clear-night,64012,Rottenburg-Kiebingen
de:08416:10501,de:08416:10501:0:2,Tübingen Neckarbrücke,2025-11-08 21:06,2025-11-08 21:06,8,Hagelloch Dornäckerweg,,tub:09008::R:j25:453,2025-11-08,0.0,48.51863,9.05795,2025-11-08 20:30,6.5,0.0,,,,,84,,clear-night,64012,Rottenburg-Kiebingen
de:08416:10501,de:08416:10501:0:2,Tübingen Neckarbrücke,2025-11-08 21:29,2025-11-08 21:29,22,Tübingen Carlo-Steeb-Str.,,tub:09022::H:j25:180,2025-11-08,0.0,48.51863,9.05795,2025-11-08 20:30,6.5,0.0,,,,,84,,clear-night,64012,Rottenburg-Kiebingen
de:08416:10501,de:08416:10501:0:2,Tübingen Neckarbrücke,2025-11-08 21:33,2025-11-08 21:33,9,Tübingen Bismarckturm,,tub:09009::R:j25:35,2025-11-08,0.0,48.51863,9.05795,2025-11-08 20:30,6.5,0.0,,,,,84,,clear-night,64012,Rottenburg-Kiebingen
de:08416:10501,de:08416:10501:0:2,Tübingen Neckarbrücke,2025-11-08 21:35,2025-11-08 21:35,10,Tübingen Schwabstraße,,tub:09010::R:j25:182,2025-11-08,0.0,48.51863,9.05795,2025-11-08 20:30,6.5,0.0,,,,,84,,clear-night,64012,Rottenburg-Kiebingen
de:08416:10501,de:08416:10501:0:2,Tübingen Neckarbrücke,2025-11-08 21:35,2025-11-08 21:35,1,Pfrondorf Lusstraße,,tub:09001::R:j25:780,2025-11-08,0.0,48.51863,9.05795,2025-11-08 20:30,6.5,0.0,,,,,84,,clear-night,64012,Rottenburg-Kiebingen
de:08416:10501,de:08416:10501:0:2,Tübingen Neckarbrücke,2025-11-08 21:36,2025-11-08 21:36,8,Hagelloch Dornäckerweg,,tub:09008::R:j25:455,2025-11-08,0.0,48.51863,9.05795,2025-11-08 20:30,6.5,0.0,,,,,84,,clear-night,64012,Rottenburg-Kiebingen
de:08416:10046,de:08416:10046:0:1,Tübingen Ernst-Bloch-Straße,2025-11-08 20:38,2025-11-08 20:38,6,Tübingen Hirschauer Straße,,tub:09006::H:j25:253,2025-11-08,0.0,48.51521,9.04207,2025-11-08 20:30,5.4,0.0,,,,,90,,clear-night,64012,Rottenburg-Kiebingen
de:08416:10046,de:08416:10046:0:1,Tübingen Ernst-Bloch-Straße,2025-11-08 21:08,2025-11-08 21:08,6,Tübingen Hirschauer Straße,,tub:09006::H:j25:254,2025-11-08,0.0,48.51521,9.04207,2025-11-08 20:30,5.4,0.0,,,,,90,,clear-night,64012,Rottenburg-Kiebingen
de:08416:10046,de:08416:10046:0:1,Tübingen Ernst-Bloch-Straße,2025-11-08 21:38,2025-11-08 21:38,6,Tübingen Hirschauer Straße,,tub:09006::H:j25:255,2025-11-08,0.0,48.51521,9.04207,2025-11-08 20:30,5.4,0.0,,,,,90,,clear-night,64012,Rottenburg-Kiebingen
de:08416:10046,de:08416:10046:0:1,Tübingen Ernst-Bloch-Straße,2025-11-08 22:08,2025-11-08 22:08,6,Tübingen Hirschauer Straße,,tub:09006::H:j25:256,2025-11-08,0.0,48.51521,9.04207,2025-11-08 20:30,5.4,0.0,,,,,90,,clear-night,64012,Rottenburg-Kiebingen
de:08416:10046,de:08416:10046:0:1,Tübingen Ernst-Bloch-Straße,2025-11-08 22:38,,6,Tübingen Hirschauer Straße,,tub:09006::H:j25:257,2025-11-08,,48.51521,9.04207,2025-11-08 20:30,5.4,0.0,,,,,90,,clear-night,64012,Rottenburg-Kiebingen
de:08416:10046,de:08416:10046:0:1,Tübingen Ernst-Bloch-Straße,2025-11-08 23:08,,6,Tübingen Hirschauer Straße,,tub:09006::H:j25:258,2025-11-08,,48.51521,9.04207,2025-11-08 20:30,5.4,0.0,,,,,90,,clear-night,64012,Rottenburg-Kiebingen
de:08416:10046,de:08416:10046:0:1,Tübingen Ernst-Bloch-Straße,2025-11-08 23:38,,6,Tübingen Hirschauer Straße,,tub:09006::H:j25:259,2025-11-08,,48.51521,9.04207,2025-11-08 20:30,5.4,0.0,,,,,90,,clear-night,64012,Rottenburg-Kiebingen
de:08416:10046,de:08416:10046:0:1,Tübingen Ernst-Bloch-Straße,2025-11-09 00:08,,6,Tübingen Hirschauer Straße,,tub:09006::H:j25:260,2025-11-09,,48.51521,9.04207,2025-11-08 20:30,5.4,0.0,,,,,90,,clear-night,64012,Rottenburg-Kiebingen
de:08416:10046,de:08416:10046:0:1,Tübingen Ernst-Bloch-Straße,2025-11-09 06:38,,6,Tübingen Hirschauer Straße,,tub:09006::H:j25:261,2025-11-09,,48.51521,9.04207,2025-11-08 20:30,5.4,0.0,,,,,90,,clear-night,64012,Rottenburg-Kiebingen
de:08416:10046,de:08416:10046:0:1,Tübingen Ernst-Bloch-Straße,2025-11-09 07:38,,6,Tübingen Hirschauer Straße,,tub:09006::H:j25:262,2025-11-09,,48.51521,9.04207,2025-11-08 20:30,5.4,0.0,,,,,90,,clear-night,64012,Rottenburg-Kiebingen
de:08416:10046,de:08416:10046:0:4,Tübingen Ernst-Bloch-Straße,2025-11-08 20:42,2025-11-08 20:42,6,Tübingen Hauptbahnhof,,tub:09006::R:j25:65,2025-11-08,0.3,48.51521,9.04207,2025-11-08 20:30,5.4,0.0,,,,,90,,clear-night,64012,Rottenburg-Kiebingen
de:08416:10046,de:08416:10046:0:4,Tübingen Ernst-Bloch-Straße,2025-11-08 21:12,2025-11-08 21:12,6,Tübingen Hauptbahnhof,,tub:09006::R:j25:66,2025-11-08,0.0,48.51521,9.04207,2025-11-08 20:30,5.4,0.0,,,,,90,,clear-night,64012,Rottenburg-Kiebingen
de:08416:10046,de:08416:10046:0:4,Tübingen Ernst-Bloch-Straße,2025-11-08 21:42,2025-11-08 21:42,6,Tübingen Hauptbahnhof,,tub:09006::R:j25:67,2025-11-08,0.0,48.51521,9.04207,2025-11-08 20:30,5.4,0.0,,,,,90,,clear-night,64012,Rottenburg-Kiebingen
de:08416:10046,de:08416:10046:0:4,Tübingen Ernst-Bloch-Straße,2025-11-08 22:12,,6,Tübingen Hauptbahnhof,,tub:09006::R:j25:68,2025-11-08,,48.51521,9.04207,2025-11-08 20:30,5.4,0.0,,,,,90,,clear-night,64012,Rottenburg-Kiebingen
de:08416:10046,de:08416:10046:0:4,Tübingen Ernst-Bloch-Straße,2025-11-08 22:42,,6,Tübingen Hauptbahnhof,,tub:09006::R:j25:69,2025-11-08,,48.51521,9.04207,2025-11-08 20:30,5.4,0.0,,,,,90,,clear-night,64012,Rottenburg-Kiebingen
de:08416:10046,de:08416:10046:0:4,Tübingen Ernst-Bloch-Straße,2025-11-08 23:12,,6,Tübingen Hauptbahnhof,,tub:09006::R:j25:70,2025-11-08,,48.51521,9.04207,2025-11-08 20:30,5.4,0.0,,,,,90,,clear-night,64012,Rottenburg-Kiebingen
de:08416:10046,de:08416:10046:0:4,Tübingen Ernst-Bloch-Straße,2025-11-08 23:42,,6,Tübingen Hauptbahnhof,,tub:09006::R:j25:71,2025-11-08,,48.51521,9.04207,2025-11-08 20:30,5.4,0.0,,,,,90,,clear-night,64012,Rottenburg-Kiebingen
de:08416:10046,de:08416:10046:0:4,Tübingen Ernst-Bloch-Straße,2025-11-09 00:12,,6,Tübingen Hauptbahnhof,,tub:09006::R:j25:72,2025-11-09,,48.51521,9.04207,2025-11-08 20:30,5.4,0.0,,,,,90,,clear-night,64012,Rottenburg-Kiebingen
de:08416:10046,de:08416:10046:0:4,Tübingen Ernst-Bloch-Straße,2025-11-09 06:42,,6,Tübingen Hauptbahnhof,,tub:09006::R:j25:73,2025-11-09,,48.51521,9.04207,2025-11-08 20:30,5.4,0.0,,,,,90,,clear-night,64012,Rottenburg-Kiebingen
de:08416:10046,de:08416:10046:0:4,Tübingen Ernst-Bloch-Straße,2025-11-09 07:42,,6,Tübingen Hauptbahnhof,,tub:09006::R:j25:74,2025-11-09,,48.51521,9.04207,2025-11-08 20:30,5.4,0.0,,,,,90,,clear-night,64012,Rottenburg-Kiebingen
de:08416:10017,de:08416:10017:0:1,Tübingen Weberstraße,2025-11-08 20:39,2025-11-08 20:41,9,Tübingen Bismarckturm,,tub:09009::R:j25:34,2025-11-08,2.8,48.52216,9.04846,2025-11-08 20:30,6.5,0.0,,,,,84,,clear-night,64012,Rottenburg-Kiebingen
de:08416:10017,de:08416:10017:0:1,Tübingen Weberstraße,2025-11-08 21:39,2025-11-08 21:39,9,Tübingen Bismarckturm,,tub:09009::R:j25:35,2025-11-08,0.0,48.52216,9.04846,2025-11-08 20:30,6.5,0.0,,,,,84,,clear-night,64012,Rottenburg-Kiebingen
de:08416:10017,de:08416:10017:0:1,Tübingen Weberstraße,2025-11-08 22:39,,9,Tübingen Bismarckturm,,tub:09009::R:j25:36,2025-11-08,,48.52216,9.04846,2025-11-08 20:30,6.5,0.0,,,,,84,,clear-night,64012,Rottenburg-Kiebingen
de:08416:10017,de:08416:10017:0:1,Tübingen Weberstraße,2025-11-08 23:39,,9,Tübingen Bismarckturm,,tub:09009::R:j25:37,2025-11-08,,48.52216,9.04846,2025-11-08 20:30,6.5,0.0,,,,,84,,clear-night,64012,Rottenburg-Kiebingen
de:08416:10017,de:08416:10017:0:1,Tübingen Weberstraße,2025-11-09 01:06,,N90,Tübingen Hauptbahnhof,,tub:09090::H:j25:2,2025-11-09,,48.52216,9.04846,2025-11-08 20:30,6.5,0.0,,,,,84,,clear-night,64012,Rottenburg-Kiebingen
de:08416:10017,de:08416:10017:0:1,Tübingen Weberstraße,2025-11-09 02:06,,N90,Tübingen Hauptbahnhof,,tub:09090::H:j25:4,2025-11-09,,48.52216,9.04846,2025-11-08 20:30,6.5,0.0,,,,,84,,clear-night,64012,Rottenburg-Kiebingen
de:08416:10017,de:08416:10017:0:1,Tübingen Weberstraße,2025-11-09 03:06,,N90,Tübingen Hauptbahnhof,,tub:09090::H:j25:6,2025-11-09,,48.52216,9.04846,2025-11-08 20:30,6.5,0.0,,,,,84,,clear-night,64012,Rottenburg-Kiebingen
de:08416:10017,de:08416:10017:0:1,Tübingen Weberstraße,2025-11-09 04:06,,N90,Tübingen Hauptbahnhof,,tub:09090::H:j25:8,2025-11-09,,48.52216,9.04846,2025-11-08 20:30,6.5,0.0,,,,,84,,clear-night,64012,Rottenburg-Kiebingen
de:08416:10017,de:08416:10017:0:1,Tübingen Weberstraße,2025-11-09 06:39,,9,Tübingen Bismarckturm,,tub:09009::R:j25:38,2025-11-09,,48.52216,9.04846,2025-11-08 20:30,6.5,0.0,,,,,84,,clear-night,64012,Rottenburg-Kiebingen
de:08416:10017,de:08416:10017:0:1,Tübingen Weberstraße,2025-11-09 07:39,,9,Tübingen Bismarckturm,,tub:09009::R:j25:39,2025-11-09,,48.52216,9.04846,2025-11-08 20:30,6.5,0.0,,,,,84,,clear-night,64012,Rottenburg-Kiebingen
de:08416:10017,de:08416:10017:0:4,Tübingen Weberstraße,2025-11-08 20:52,2025-11-08 20:52,9,Tübingen Hauptbahnhof,,tub:09009::H:j25:89,2025-11-08,0.0,48.52216,9.04846,2025-11-08 20:30,6.5,0.0,,,,,84,,clear-night,64012,Rottenburg-Kiebingen
de:08416:10017,de:08416:10017:0:4,Tübingen Weberstraße,2025-11-08 21:24,2025-11-08 21:24,11,Tübingen Schwärzlocher Str. 45,,tub:09011::R:j25:67,2025-11-08,0.0,48.52216,9.04846,2025-11-08 20:30,6.5,0.0,,,,,84,,clear-night,64012,Rottenburg-Kiebingen
de:08416:10017,de:08416:10017:0:4,Tübingen Weberstraße,2025-11-08 21:24,,11,Tübingen Hauptbahnhof,,tub:09011::H:j25:175,2025-11-08,,48.52216,9.04846,2025-11-08 20:30,6.5,0.0,,,,,84,,clear-night,64012,Rottenburg-Kiebingen
de:08416:10017,de:08416:10017:0:4,Tübingen Weberstraße,2025-11-08 21:52,2025-11-08 21:52,9,Tübingen Hauptbahnhof,,tub:09009::H:j25:90,2025-11-08,0.0,48.52216,9.04846,2025-11-08 20:30,6.5,0.0,,,,,84,,clear-night,64012,Rottenburg-Kiebingen
de:08416:10017,de:08416:10017:0:4,Tübingen Weberstraße,2025-11-08 22:24,,11,Tübingen Hauptbahnhof,,tub:09011::H:j25:177,2025-11-08,,48.52216,9.04846,2025-11-08 20:30,6.5,0.0,,,,,84,,clear-night,64012,Rottenburg-Kiebingen
de:08416:10017,de:08416:10017:0:4,Tübingen Weberstraße,2025-11-08 22:52,,9,Tübingen Hauptbahnhof,,tub:09009::H:j25:91,2025-11-08,,48.52216,9.04846,2025-11-08 20:30,6.5,0.0,,,,,84,,clear-night,64012,Rottenburg-Kiebingen
de:08416:10017,de:08416:10017:0:4,Tübingen Weberstraße,2025-11-08 23:24,,11,Tübingen Hauptbahnhof,,tub:09011::H:j25:179,2025-11-08,,48.52216,9.04846,2025-11-08 20:30,6.5,0.0,,,,,84,,clear-night,64012,Rottenburg-Kiebingen
de:08416:10017,de:08416:10017:0:4,Tübingen Weberstraße,2025-11-08 23:52,,9,Tübingen Hauptbahnhof,,tub:09009::H:j25:92,2025-11-08,,48.52216,9.04846,2025-11-08 20:30,6.5,0.0,,,,,84,,clear-night,64012,Rottenburg-Kiebingen
de:08416:10017,de:08416:10017:0:4,Tübingen Weberstraße,2025-11-09 01:15,,N90,Tübingen Hauptbahnhof,,tub:09090::H:j25:2,2025-11-09,,48.52216,9.04846,2025-11-08 20:30,6.5,0.0,,,,,84,,clear-night,64012,Rottenburg-Kiebingen
de:08416:10017,de:08416:10017:0:4,Tübingen Weberstraße,2025-11-09 01:23,,N90,Tübingen Hauptbahnhof,,tub:09090::H:j25:2,2025-11-09,,48.52216,9.04846,2025-11-08 20:30,6.5,0.0,,,,,84,,clear-night,64012,Rottenburg-Kiebingen
de:08416:10518,de:08416:10518:0:4,Tübingen Poststraße,2025-11-08 20:42,2025-11-08 20:44,3,Tübingen WHO Ulmenweg,,tub:09003::R:j25:330,2025-11-08,1.8,48.51696,9.05935,2025-11-08 20:30,6.5,0.0,,,,,84,,clear-night,64012,Rottenburg-Kiebingen
de:08416:10518,de:08416:10518:0:4,Tübingen Poststraße,2025-11-08 20:49,2025-11-08 20:49,7625,Tübingen Hauptbahnhof,,tub:80625::R:j25:48,2025-11-08,0.7,48.51696,9.05935,2025-11-08 20:30,6.5,0.0,,,,,84,,clear-night,64012,Rottenburg-Kiebingen
de:08416:10518,de:08416:10518:0:4,Tübingen Poststraße,2025-11-08 20:52,2025-11-08 20:52,4,Tübingen WHO Ulmenweg,,tub:09004::R:j25:206,2025-11-08,0.0,48.51696,9.05935,2025-11-08 20:30,6.5,0.0,,,,,84,,clear-night,64012,Rottenburg-Kiebingen
de:08416:10518,de:08416:10518:0:4,Tübingen Poststraße,2025-11-08 20:58,2025-11-08 20:58,5,Tübingen WHO Ahornweg,,tub:09005::R:j25:344,2025-11-08,0.1,48.51696,9.05935,2025-11-08 20:30,6.5,0.0,,,,,84,,clear-night,64012,Rottenburg-Kiebingen
de:08416:10518,de:08416:10518:0:4,Tübingen Poststraße,2025-11-08 21:12,2025-11-08 21:12,3,Tübingen WHO Ulmenweg,,tub:09003::R:j25:332,2025-11-08,0.0,48.51696,9.05935,2025-11-08 20:30,6.5,0.0,,,,,84,,clear-night,64012,Rottenburg-Kiebingen
de:08416:10518,de:08416:10518:0:4,Tübingen Poststraße,2025-11-08 21:22,2025-11-08 21:22,4,Tübingen WHO Ulmenweg,,tub:09004::R:j25:208,2025-11-08,0.0,48.51696,9.05935,2025-11-08 20:30,6.5,0.0,,,,,84,,clear-night,64012,Rottenburg-Kiebingen
de:08416:10518,de:08416:10518:0:4,Tübingen Poststraße,2025-11-08 21:23,,7611,Tübingen Hauptbahnhof,,tub:34611::R:j25:70,2025-11-08,,48.51696,9.05935,2025-11-08 20:30,6.5,0.0,,,,,84,,clear-night,64012,Rottenburg-Kiebingen
de:08416:10518,de:08416:10518:0:4,Tübingen Poststraße,2025-11-08 21:28,2025-11-08 21:28,5,Tübingen WHO Ahornweg,,tub:09005::R:j25:348,2025-11-08,0.0,48.51696,9.05935,2025-11-08 20:30,6.5,0.0,,,,,84,,clear-night,64012,Rottenburg-Kiebingen
de:08416:10518,de:08416:10518:0:4,Tübingen Poststraße,2025-11-08 21:42,2025-11-08 21:42,3,Tübingen WHO Ulmenweg,,tub:09003::R:j25:334,2025-11-08,0.0,48.51696,9.05935,2025-11-08 20:30,6.5,0.0,,,,,84,,clear-night,64012,Rottenburg-Kiebingen
de:08416:10518,de:08416:10518:0:4,Tübingen Poststraße,2025-11-08 21:49,2025-11-08 21:49,7625,Tübingen Hauptbahnhof,,tub:80625::R:j25:50,2025-11-08,0.0,48.51696,9.05935,2025-11-08 20:30,6.5,0.0,,,,,84,,clear-night,64012,Rottenburg-Kiebingen
de:08416:10052,de:08416:10052:0:4,Tübingen Schwärzlocher Str. 45,2025-11-08 21:22,2025-11-08 21:22,11,Tübingen Schwärzlocher Str. 45,,tub:09011::R:j25:67,2025-11-08,0.0,48.51931,9.04412,2025-11-08 20:30,5.4,0.0,,,,,90,,clear-night,64012,Rottenburg-Kiebingen
de:08416:10052,de:08416:10052:0:4,Tübingen Schwärzlocher Str. 45,2025-11-08 21:22,,11,Tübingen Hauptbahnhof,,tub:09011::H:j25:175,2025-11-08,,48.51931,9.04412,2025-11-08 20:30,5.4,0.0,,,,,90,,clear-night,64012,Rottenburg-Kiebingen
de:08416:10052,de:08416:10052:0:4,Tübingen Schwärzlocher Str. 45,2025-11-08 22:22,,11,Tübingen Hauptbahnhof,,tub:09011::H:j25:177,2025-11-08,,48.51931,9.04412,2025-11-08 20:30,5.4,0.0,,,,,90,,clear-night,64012,Rottenburg-Kiebingen
de:08416:10052,de:08416:10052:0:4,Tübingen Schwärzlocher Str. 45,2025-11-08 23:22,,11,Tübingen Hauptbahnhof,,tub:09011::H:j25:179,2025-11-08,,48.51931,9.04412,2025-11-08 20:30,5.4,0.0,,,,,90,,clear-night,64012,Rottenburg-Kiebingen
de:08416:10052,de:08416:10052:0:4,Tübingen Schwärzlocher Str. 45,2025-11-09 01:21,,N90,Tübingen Hauptbahnhof,,tub:09090::H:j25:2,2025-11-09,,48.51931,9.04412,2025-11-08 20:30,5.4,0.0,,,,,90,,clear-night,64012,Rottenburg-Kiebingen
de:08416:10052,de:08416:10052:0:4,Tübingen Schwärzlocher Str. 45,2025-11-09 02:21,,N90,Tübingen Hauptbahnhof,,tub:09090::H:j25:4,2025-11-09,,48.51931,9.04412,2025-11-08 20:30,5.4,0.0,,,,,90,,clear-night,64012,Rottenburg-Kiebingen
de:08416:10052,de:08416:10052:0:4,Tübingen Schwärzlocher Str. 45,2025-11-09 03:21,,N90,Tübingen Hauptbahnhof,,tub:09090::H:j25:6,2025-11-09,,48.51931,9.04412,2025-11-08 20:30,5.4,0.0,,,,,90,,clear-night,64012,Rottenburg-Kiebingen
de:08416:10052,de:08416:10052:0:4,Tübingen Schwärzlocher Str. 45,2025-11-09 04:21,,N90,Tübingen Hauptbahnhof,,tub:09090::H:j25:8,2025-11-09,,48.51931,9.04412,2025-11-08 20:30,5.4,0.0,,,,,90,,clear-night,64012,Rottenburg-Kiebingen
de:08416:10052,de:08416:10052:0:4,Tübingen Schwärzlocher Str. 45,2025-11-09 06:22,,11,Tübingen Hauptbahnhof,,tub:09011::H:j25:181,2025-11-09,,48.51931,9.04412,2025-11-08 20:30,5.4,0.0,,,,,90,,clear-night,64012,Rottenburg-Kiebingen
de:08416:10052,de:08416:10052:0:4,Tübingen Schwärzlocher Str. 45,2025-11-09 07:22,,11,Tübingen Hauptbahnhof,,tub:09011::H:j25:183,2025-11-09,,48.51931,9.04412,2025-11-08 20:30,5.4,0.0,,,,,90,,clear-night,64012,Rottenburg-Kiebingen
de:08416:10018,de:08416:10018:0:1,Tübingen Kelternplatz,2025-11-08 20:38,2025-11-08 20:41,9,Tübingen Bismarckturm,,tub:09009::R:j25:34,2025-11-08,2.8,48.52285,9.05075,2025-11-08 20:30,6.5,0.0,,,,,84,,clear-night,64012,Rottenburg-Kiebingen
de:08416:10018,de:08416:10018:0:1,Tübingen Kelternplatz,2025-11-08 21:08,,11,Tübingen Schwärzlocher Str. 45,,tub:09011::R:j25:67,2025-11-08,,48.52285,9.05075,2025-11-08 20:30,6.5,0.0,,,,,84,,clear-night,64012,Rottenburg-Kiebingen
de:08416:10018,de:08416:10018:0:1,Tübingen Kelternplatz,2025-11-08 21:38,2025-11-08 21:38,9,Tübingen Bismarckturm,,tub:09009::R:j25:35,2025-11-08,0.0,48.52285,9.05075,2025-11-08 20:30,6.5,0.0,,,,,84,,clear-night,64012,Rottenburg-Kiebingen
de:08416:10018,de:08416:10018:0:1,Tübingen Kelternplatz,2025-11-08 22:08,2025-11-08 22:08,11,Tübingen Schwärzlocher Str. 45,,tub:09011::R:j25:69,2025-11-08,0.0,48.52285,9.05075,2025-11-08 20:30,6.5,0.0,,,,,84,,clear-night,64012,Rottenburg-Kiebingen
de:08416:10018,de:08416:10018:0:1,Tübingen Kelternplatz,2025-11-08 22:38,,9,Tübingen Bismarckturm,,tub:09009::R:j25:36,2025-11-08,,48.52285,9.05075,2025-11-08 20:30,6.5,0.0,,,,,84,,clear-night,64012,Rottenburg-Kiebingen
de:08416:10018,de:08416:10018:0:1,Tübingen Kelternplatz,2025-11-08 23:08,,11,Tübingen Schwärzlocher Str. 45,,tub:09011::R:j25:71,2025-11-08,,48.52285,9.05075,2025-11-08 20:30,6.5,0.0,,,,,84,,clear-night,64012,Rottenburg-Kiebingen
de:08416:10018,de:08416:10018:0:1,Tübingen Kelternplatz,2025-11-08 23:38,,9,Tübingen Bismarckturm,,tub:09009::R:j25:37,2025-11-08,,48.52285,9.05075,2025-11-08 20:30,6.5,0.0,,,,,84,,clear-night,64012,Rottenburg-Kiebingen
de:08416:10018,de:08416:10018:0:1,Tübingen Kelternplatz,2025-11-09 01:05,,N90,Tübingen Hauptbahnhof,,tub:09090::H:j25:2,2025-11-09,,48.52285,9.05075,2025-11-08 20:30,6.5,0.0,,,,,84,,clear-night,64012,Rottenburg-Kiebingen
de:08416:10018,de:08416:10018:0:1,Tübingen Kelternplatz,2025-11-09 02:05,,N90,Tübingen Hauptbahnhof,,tub:09090::H:j25:4,2025-11-09,,48.52285,9.05075,2025-11-08 20:30,6.5,0.0,,,,,84,,clear-night,64012,Rottenburg-Kiebingen
de:08416:10018,de:08416:10018:0:1,Tübingen Kelternplatz,2025-11-09 03:05,,N90,Tübingen Hauptbahnhof,,tub:09090::H:j25:6,2025-11-09,,48.52285,9.05075,2025-11-08 20:30,6.5,0.0,,,,,84,,clear-night,64012,Rottenburg-Kiebingen
de:08416:10039,de:08416:10039:0:1,Tübingen Hermann Hepper Halle,2025-11-08 21:09,2025-11-08 21:09,11,Tübingen Schwärzlocher Str. 45,,tub:09011::R:j25:67,2025-11-08,0.0,48.52232,9.04641,2025-11-08 20:30,6.5,0.0,,,,,84,,clear-night,64012,Rottenburg-Kiebingen
de:08416:10039,de:08416:10039:0:1,Tübingen Hermann Hepper Halle,2025-11-08 22:09,,11,Tübingen Schwärzlocher Str. 45,,tub:09011::R:j25:69,2025-11-08,,48.52232,9.04641,2025-11-08 20:30,6.5,0.0,,,,,84,,clear-night,64012,Rottenburg-Kiebingen
de:08416:10039,de:08416:10039:0:1,Tübingen Hermann Hepper Halle,2025-11-08 23:09,,11,Tübingen Schwärzlocher Str. 45,,tub:09011::R:j25:71,2025-11-08,,48.52232,9.04641,2025-11-08 20:30,6.5,0.0,,,,,84,,clear-night,64012,Rottenburg-Kiebingen
de:08416:10039,de:08416:10039:0:1,Tübingen Hermann Hepper Halle,2025-11-09 01:16,,N90,Tübingen Hauptbahnhof,,tub:09090::H:j25:2,2025-11-09,,48.52232,9.04641,2025-11-08 20:30,6.5,0.0,,,,,84,,clear-night,64012,Rottenburg-Kiebingen
de:08416:10039,de:08416:10039:0:1,Tübingen Hermann Hepper Halle,2025-11-09 02:16,,N90,Tübingen Hauptbahnhof,,tub:09090::H:j25:4,2025-11-09,,48.52232,9.04641,2025-11-08 20:30,6.5,0.0,,,,,84,,clear-night,64012,Rottenburg-Kiebingen
de:08416:10039,de:08416:10039:0:1,Tübingen Hermann Hepper Halle,2025-11-09 03:16,,N90,Tübingen Hauptbahnhof,,tub:09090::H:j25:6,2025-11-09,,48.52232,9.04641,2025-11-08 20:30,6.5,0.0,,,,,84,,clear-night,64012,Rottenburg-Kiebingen
de:08416:10039,de:08416:10039:0:1,Tübingen Hermann Hepper Halle,2025-11-09 04:16,,N90,Tübingen Hauptbahnhof,,tub:09090::H:j25:8,2025-11-09,,48.52232,9.04641,2025-11-08 20:30,6.5,0.0,,,,,84,,clear-night,64012,Rottenburg-Kiebingen
de:08416:10039,de:08416:10039:0:1,Tübingen Hermann Hepper Halle,2025-11-09 06:09,,11,Tübingen Schwärzlocher Str. 45,,tub:09011::R:j25:73,2025-11-09,,48.52232,9.04641,2025-11-08 20:30,6.5,0.0,,,,,84,,clear-night,64012,Rottenburg-Kiebingen
de:08416:10039,de:08416:10039:0:1,Tübingen Hermann Hepper Halle,2025-11-09 07:09,,11,Tübingen Schwärzlocher Str. 45,,tub:09011::R:j25:75,2025-11-09,,48.52232,9.04641,2025-11-08 20:30,6.5,0.0,,,,,84,,clear-night,64012,Rottenburg-Kiebingen
de:08416:10039,de:08416:10039:0:1,Tübingen Hermann Hepper Halle,2025-11-09 08:09,,11,Tübingen Schwärzlocher Str. 45,,tub:09011::R:j25:77,2025-11-09,,48.52232,9.04641,2025-11-08 20:30,6.5,0.0,,,,,84,,clear-night,64012,Rottenburg-Kiebingen
de:08416:10700,de:08416:10700:0:4,Tübingen Hegelstraße,2025-11-08 20:54,2025-11-08 20:54,5,Tübingen WHO Ahornweg,,tub:09005::R:j25:344,2025-11-08,0.0,48.51346,9.05136,2025-11-08 20:30,5.4,0.0,,,,,90,,clear-night,64012,Rottenburg-Kiebingen
de:08416:10700,de:08416:10700:0:4,Tübingen Hegelstraße,2025-11-08 21:24,2025-11-08 21:24,5,Tübingen WHO Ahornweg,,tub:09005::R:j25:348,2025-11-08,0.0,48.51346,9.05136,2025-11-08 20:30,5.4,0.0,,,,,90,,clear-night,64012,Rottenburg-Kiebingen
de:08416:10700,de:08416:10700:0:4,Tübingen Hegelstraße,2025-11-08 21:54,2025-11-08 21:54,5,Tübingen WHO Ahornweg,,tub:09005::R:j25:352,2025-11-08,0.0,48.51346,9.05136,2025-11-08 20:30,5.4,0.0,,,,,90,,clear-night,64012,Rottenburg-Kiebingen
de:08416:10700,de:08416:10700:0:4,Tübingen Hegelstraße,2025-11-08 22:24,,5,Tübingen WHO Ahornweg,,tub:09005::R:j25:354,2025-11-08,,48.51346,9.05136,2025-11-08 20:30,5.4,0.0,,,,,90,,clear-night,64012,Rottenburg-Kiebingen
de:08416:10700,de:08416:10700:0:4,Tübingen Hegelstraße,2025-11-08 22:54,,5,Tübingen WHO Ahornweg,,tub:09005::R:j25:356,2025-11-08,,48.51346,9.05136,2025-11-08 20:30,5.4,0.0,,,,,90,,clear-night,64012,Rottenburg-Kiebingen
de:08416:10700,de:08416:10700:0:4,Tübingen Hegelstraße,2025-11-08 23:24,,5,Tübingen WHO Ahornweg,,tub:09005::R:j25:358,2025-11-08,,48.51346,9.05136,2025-11-08 20:30,5.4,0.0,,,,,90,,clear-night,64012,Rottenburg-Kiebingen
de:08416:10700,de:08416:10700:0:4,Tübingen Hegelstraße,2025-11-08 23:54,,5,Tübingen WHO Ahornweg,,tub:09005::R:j25:360,2025-11-08,,48.51346,9.05136,2025-11-08 20:30,5.4,0.0,,,,,90,,clear-night,64012,Rottenburg-Kiebingen
de:08416:10700,de:08416:10700:0:4,Tübingen Hegelstraße,2025-11-09 05:30,,5,Tübingen WHO Ahornweg,,tub:09005::R:j25:363,2025-11-09,,48.51346,9.05136,2025-11-08 20:30,5.4,0.0,,,,,90,,clear-night,64012,Rottenburg-Kiebingen
de:08416:10700,de:08416:10700:0:4,Tübingen Hegelstraße,2025-11-09 05:54,,5,Tübingen WHO Ahornweg,,tub:09005::R:j25:366,2025-11-09,,48.51346,9.05136,2025-11-08 20:30,5.4,0.0,,,,,90,,clear-night,64012,Rottenburg-Kiebingen
de:08416:10700,de:08416:10700:0:4,Tübingen Hegelstraße,2025-11-09 06:24,,5,Tübingen WHO Ahornweg,,tub:09005::R:j25:369,2025-11-09,,48.51346,9.05136,2025-11-08 20:30,5.4,0.0,,,,,90,,clear-night,64012,Rottenburg-Kiebingen
de:08416:10700,de:08416:10700:0:1,Tübingen Hegelstraße,2025-11-08 21:00,2025-11-08 21:00,5,Tübingen Derend. Käppele,,tub:09005::H:j25:875,2025-11-08,0.5,48.51346,9.05136,2025-11-08 20:30,5.4,0.0,,,,,90,,clear-night,64012,Rottenburg-Kiebingen
de:08416:10700,de:08416:10700:0:1,Tübingen Hegelstraße,2025-11-08 21:30,2025-11-08 21:30,5,Tübingen Derend. Käppele,,tub:09005::H:j25:879,2025-11-08,0.0,48.51346,9.05136,2025-11-08 20:30,5.4,0.0,,,,,90,,clear-night,64012,Rottenburg-Kiebingen
de:08416:10700,de:08416:10700:0:1,Tübingen Hegelstraße,2025-11-08 22:00,2025-11-08 22:00,5,Tübingen Derend. Käppele,,tub:09005::H:j25:883,2025-11-08,0.0,48.51346,9.05136,2025-11-08 20:30,5.4,0.0,,,,,90,,clear-night,64012,Rottenburg-Kiebingen
de:08416:10700,de:08416:10700:0:1,Tübingen Hegelstraße,2025-11-08 22:30,2025-11-08 22:30,5,Tübingen Derend. Käppele,,tub:09005::H:j25:887,2025-11-08,0.0,48.51346,9.05136,2025-11-08 20:30,5.4,0.0,,,,,90,,clear-night,64012,Rottenburg-Kiebingen
de:08416:10700,de:08416:10700:0:1,Tübingen Hegelstraße,2025-11-08 23:00,2025-11-08 23:00,5,Tübingen Derend. Käppele,,tub:09005::H:j25:890,2025-11-08,0.0,48.51346,9.05136,2025-11-08 20:30,5.4,0.0,,,,,90,,clear-night,64012,Rottenburg-Kiebingen
de:08416:10700,de:08416:10700:0:1,Tübingen Hegelstraße,2025-11-08 23:30,,5,Tübingen Derend. Käppele,,tub:09005::H:j25:891,2025-11-08,,48.51346,9.05136,2025-11-08 20:30,5.4,0.0,,,,,90,,clear-night,64012,Rottenburg-Kiebingen
de:08416:10700,de:08416:10700:0:1,Tübingen Hegelstraße,2025-11-09 00:00,,5,Tübingen Derend. Käppele,,tub:09005::H:j25:893,2025-11-09,,48.51346,9.05136,2025-11-08 20:30,5.4,0.0,,,,,90,,clear-night,64012,Rottenburg-Kiebingen
de:08416:10700,de:08416:10700:0:1,Tübingen Hegelstraße,2025-11-09 01:02,,N88,Tübingen Hauptbahnhof,,tub:09N88::H:j25:1,2025-11-09,,48.51346,9.05136,2025-11-08 20:30,5.4,0.0,,,,,90,,clear-night,64012,Rottenburg-Kiebingen
de:08416:10700,de:08416:10700:0:1,Tübingen Hegelstraße,2025-11-09 02:02,,N88,Tübingen Hauptbahnhof,,tub:09N88::H:j25:2,2025-11-09,,48.51346,9.05136,2025-11-08 20:30,5.4,0.0,,,,,90,,clear-night,64012,Rottenburg-Kiebingen
de:08416:10700,de:08416:10700:0:1,Tübingen Hegelstraße,2025-11-09 03:02,,N88,Tübingen Hauptbahnhof,,tub:09N88::H:j25:4,2025-11-09,,48.51346,9.05136,2025-11-08 20:30,5.4,0.0,,,,,90,,clear-night,64012,Rottenburg-Kiebingen
de:08416:10904,de:08416:10904:0:1,Tübingen Freibad,2025-11-08 20:38,2025-11-08 20:38,18,Rottenburg E.-Bolz-Platz,,tub:33018::H:j25:203,2025-11-08,0.0,48.51051,9.04342,2025-11-08 20:30,5.4,0.0,,,,,90,,clear-night,64012,Rottenburg-Kiebingen
de:08416:10904,de:08416:10904:0:1,Tübingen Freibad,2025-11-08 21:01,2025-11-08 21:01,19,Bühl Römerstraße,,rab:24019::H:25a:201,2025-11-08,0.0,48.51051,9.04342,2025-11-08 20:30,5.4,0.0,,,,,90,,clear-night,64012,Rottenburg-Kiebingen
de:08416:10904,de:08416:10904:0:1,Tübingen Freibad,2025-11-08 21:08,2025-11-08 21:08,18,Hirschau Volksbank,,tub:33018::H:j25:227,2025-11-08,0.0,48.51051,9.04342,2025-11-08 20:30,5.4,0.0,,,,,90,,clear-night,64012,Rottenburg-Kiebingen
de:08416:10904,de:08416:10904:0:1,Tübingen Freibad,2025-11-08 21:31,,19,Rottenburg Bahnhof,,rab:24019::H:25a:151,2025-11-08,,48.51051,9.04342,2025-11-08 20:30,5.4,0.0,,,,,90,,clear-night,64012,Rottenburg-Kiebingen
de:08416:10904,de:08416:10904:0:1,Tübingen Freibad,2025-11-08 21:38,,18,Oberndorf Feuersee,,tub:33018::H:j25:190,2025-11-08,,48.51051,9.04342,2025-11-08 20:30,5.4,0.0,,,,,90,,clear-night,64012,Rottenburg-Kiebingen
de:08416:10904,de:08416:10904:0:1,Tübingen Freibad,2025-11-08 22:01,,19,Bühl Römerstraße,,rab:24019::H:25a:202,2025-11-08,,48.51051,9.04342,2025-11-08 20:30,5.4,0.0,,,,,90,,clear-night,64012,Rottenburg-Kiebingen
de:08416:10904,de:08416:10904:0:1,Tübingen Freibad,2025-11-08 22:08,2025-11-08 22:08,18,Hirschau Volksbank,,tub:33018::H:j25:228,2025-11-08,0.0,48.51051,9.04342,2025-11-08 20:30,5.4,0.0,,,,,90,,clear-night,64012,Rottenburg-Kiebingen
de:08416:10904,de:08416:10904:0:1,Tübingen Freibad,2025-11-08 22:31,,19,Bühl Römerstraße,,rab:24019::H:25a:203,2025-11-08,,48.51051,9.04342,2025-11-08 20:30,5.4,0.0,,,,,90,,clear-night,64012,Rottenburg-Kiebingen
de:08416:10904,de:08416:10904:0:1,Tübingen Freibad,2025-11-08 22:38,,18,Rottenburg E.-Bolz-Platz,,tub:33018::H:j25:205,2025-11-08,,48.51051,9.04342,2025-11-08 20:30,5.4,0.0,,,,,90,,clear-night,64012,Rottenburg-Kiebingen
de:08416:10904,de:08416:10904:0:1,Tübingen Freibad,2025-11-08 23:01,,19,Bühl Römerstraße,,rab:24019::H:25a:204,2025-11-08,,48.51051,9.04342,2025-11-08 20:30,5.4,0.0,,,,,90,,clear-night,64012,Rottenburg-Kiebingen
de:08416:10904,de:08416:10904:0:4,Tübingen Freibad,2025-11-08 20:49,2025-11-08 20:49,18,Tübingen Hauptbahnhof,,tub:33018::R:j25:47,2025-11-08,0.0,48.51051,9.04342,2025-11-08 20:30,5.4,0.0,,,,,90,,clear-night,64012,Rottenburg-Kiebingen
de:08416:10904,de:08416:10904:0:4,Tübingen Freibad,2025-11-08 20:55,2025-11-08 20:55,19,Tübingen Hauptbahnhof,,rab:24019::R:25a:51,2025-11-08,0.0,48.51051,9.04342,2025-11-08 20:30,5.4,0.0,,,,,90,,clear-night,64012,Rottenburg-Kiebingen
de:08416:10904,de:08416:10904:0:4,Tübingen Freibad,2025-11-08 21:19,2025-11-08 21:19,18,Tübingen Hauptbahnhof,,tub:33018::R:j25:75,2025-11-08,0.0,48.51051,9.04342,2025-11-08 20:30,5.4,0.0,,,,,90,,clear-night,64012,Rottenburg-Kiebingen
de:08416:10904,de:08416:10904:0:4,Tübingen Freibad,2025-11-08 21:25,,19,Tübingen Hauptbahnhof,,rab:24019::R:25a:53,2025-11-08,,48.51051,9.04342,2025-11-08 20:30,5.4,0.0,,,,,90,,clear-night,64012,Rottenburg-Kiebingen
de:08416:10904,de:08416:10904:0:4,Tübingen Freibad,2025-11-08 21:49,,18,Tübingen Hauptbahnhof,,tub:33018::R:j25:48,2025-11-08,,48.51051,9.04342,2025-11-08 20:30,5.4,0.0,,,,,90,,clear-night,64012,Rottenburg-Kiebingen
de:08416:10904,de:08416:10904:0:4,Tübingen Freibad,2025-11-08 21:55,,19,Tübingen Hauptbahnhof,,rab:24019::R:25a:54,2025-11-08,,48.51051,9.04342,2025-11-08 20:30,5.4,0.0,,,,,90,,clear-night,64012,Rottenburg-Kiebingen
de:08416:10904,de:08416:10904:0:4,Tübingen Freibad,2025-11-08 22:19,2025-11-08 22:19,18,Tübingen Hauptbahnhof,,tub:33018::R:j25:77,2025-11-08,0.0,48.51051,9.04342,2025-11-08 20:30,5.4,0.0,,,,,90,,clear-night,64012,Rottenburg-Kiebingen
de:08416:10904,de:08416:10904:0:4,Tübingen Freibad,2025-11-08 22:25,,19,Tübingen Hauptbahnhof,,rab:24019::R:25a:76,2025-11-08,,48.51051,9.04342,2025-11-08 20:30,5.4,0.0,,,,,90,,clear-night,64012,Rottenburg-Kiebingen
de:08416:10904,de:08416:10904:0:4,Tübingen Freibad,2025-11-08 22:49,,18,Tübingen Hauptbahnhof,,tub:33018::R:j25:101,2025-11-08,,48.51051,9.04342,2025-11-08 20:30,5.4,0.0,,,,,90,,clear-night,64012,Rottenburg-Kiebingen
de:08416:10904,de:08416:10904:0:4,Tübingen Freibad,2025-11-08 22:55,,19,Tübingen Hauptbahnhof,,rab:24019::R:25a:56,2025-11-08,,48.51051,9.04342,2025-11-08 20:30,5.4,0.0,,,,,90,,clear-night,64012,Rottenburg-Kiebingen
